Latitude,Longitude,Type,Licensee Name,Child Care Centre Name,# of Infant,# of Toddler,# of Preschool,# of Kindergarten,# of Primary/Junior School Age ,# of Junior School Age,# of Family Age Group,Total Capacity,CCC Civic Address,CCC Civic Address -  City,CCC Civic Address -  Province,CCC Civic Address - Postal Code,Full French Service,Indigenous
45.416153,-75.6980512,Centre,10613916 Canada Inc.,Tiny Hoppers Downtown Ottawa,10,30,48,0,0,0,0,88,360 Lisgar Street,Ottawa, Ontario, K1P 5M1,,
,,Centre,109354 Association Canada Inc.,Children on the Hill/Les enfants de la colline,0,10,24,0,0,0,0,34,"House of C Box 904, Confederation Bldg.",Ottawa, Ontario, K1A 0A6,,
45.3447944,-75.6322141,Centre,1799720 Ontario Inc.,Monkey Around Play & Learn Centre,10,15,48,0,0,0,0,73,7-1650 Queensdale Avenue,Ottawa, Ontario, K1T 1N8,,
45.2805166,-75.738372,Centre,2453051 Ontario Incorporated,FIT4KIDS,0,0,0,0,30,0,0,30,199 Berrigan Drive,Nepean, Ontario, K2J 5C6,,
45.3213032,-75.8897366,Centre,4052676 Canada Inc.,Tiny Hoppers Kanata North Daycare,0,15,64,0,0,0,0,79,50 Colchester  Square,Kanata, Ontario, K2K 2W9,,
45.4117485,-75.6971285,Centre,4498780 CANADA INC.,Florence Child Care,0,15,24,0,0,0,0,39,79 Florence  Street,Ottawa, Ontario, K1R 5N1,,
45.4686787,-75.4557008,Centre,6088325 CANADA INC.,Tiny Hoppers Orleans Daycare Centre,0,15,40,0,0,0,0,55,5160 Innes  Road,Ottawa, Ontario, K4A 0G4,,
45.490816,-75.4811759,Centre,6099050 Canada Inc.,Centre éducatif des Bécasseaux,20,30,48,49,30,0,0,177,510 Lacolle  Way,Orléans, Ontario, K4A 0N9,French,
45.394396,-75.6826632,Centre,6317081 Canada Inc.,Glebe Reggio Centre,0,15,34,0,0,0,0,49,276 Sunnyside  Avenue,Ottawa, Ontario, K1S 0R4,,
45.2914913,-75.8571414,Centre,6781454 CANADA CORP.,Tiny Hoppers in Bridlewood,0,15,40,0,0,0,0,55,64 Stonehaven  Drive,Kanata, Ontario, K2M 2Y2,,
45.364912,-75.7500139,Centre,7869177 Canada Inc.,Little Love Bugs Daycare,10,30,48,0,0,0,0,88,1160 Maitland  Avenue,Ottawa, Ontario, K2C 2C2,,
45.3178643,-75.5947134,Centre,7887825 Canada Inc.,Tiny Hoppers Findlay Creek,0,15,24,16,0,0,0,55,4772 Bank  Street,Ottawa, Ontario, K1T 4J5,,
45.2659326,-75.7713449,Centre,7890796 Canada Inc.,Tiny Hoppers Barrhaven,0,15,24,0,0,0,0,39,3023 Cedarview  Road,Nepean, Ontario, K2J 4A8,,
,,Centre,A Gym Tale Inc.,A Gym Tale,0,0,0,0,30,0,0,30,3777 Strandherd  Road,Ottawa, Ontario, K2J 4B1,,
45.4033161,-75.7292438,Centre,ABC Infant and Toddler Centre of Ottawa,ABC Infant and Toddler Centre,16,20,0,0,0,0,0,36,5 Pinehurst  Avenue,Ottawa, Ontario, K1Y 1K2,,
45.4026071,-75.7295807,Centre,ABC Infant and Toddler Centre of Ottawa,ABC Preschool Centre,0,0,40,0,0,0,0,40,28 Oxford  Street,Ottawa, Ontario, K1Y 2R7,,
45.3467502,-75.7907999,Centre,Acadecap Corporation,Acadekidz,0,20,24,0,0,0,0,44,1010 Morrison Drive,Ottawa, Ontario, K2H 8K7,,
45.4402253,-75.6432102,Centre,Académie St-Laurent Academy Inc.,St. Laurent Academy/Académie St. Laurent,10,26,48,0,0,0,0,84,641 Sladen  Avenue,Ottawa, Ontario, K1K 2S8,,
45.4019425,-75.6143345,Centre,Académie St-Laurent Academy Inc.,St-Laurent Academy,10,10,16,0,0,0,0,36,2525 Lancaster  Road,Ottawa, Ontario, K1B 4L5,,
45.407247,-75.6911116,Centre,Acorn Early Learning Centre Inc.,Acorn Early Learning Centre,0,13,32,33,15,0,0,93,600 Bank  Street,Ottawa, Ontario, K1S 3T6,,
45.3475675,-75.7609952,Centre,Algonquin College of Applied Arts & Technology,Algonquin College Early Learning Centre,10,15,24,0,0,0,0,49,1385 Woodroffe  Avenue,Nepean, Ontario, K2G 1V8,,
45.4059226,-75.6490654,Centre,Alta Vista Co-operative Nursery School Inc.,Alta Vista Co-operative Nursery School Inc.,0,0,0,20,15,0,0,35,480 Avalon Place,Ottawa, Ontario, K1G 0W4,,
45.4293919,-75.6868393,Centre,Andrew Fleck Children’s Services/Service A L’Enfance Andrew Fleck,Andrew Fleck Child Care Centre,0,0,56,0,0,0,0,56,195 George Street,Ottawa, Ontario, K1N 5W6,,
45.2711288,-75.9085923,Centre,Andrew Fleck Children’s Services/Service A L’Enfance Andrew Fleck,Andrew Fleck Child Care Centre - Stittsville Program,0,0,16,78,90,20,0,204,40 Granite Ridge  Drive,Stittsville, Ontario, K2S 1Y9,,
45.3838681,-75.6645258,Centre,Andrew Fleck Children’s Services/Service A L’Enfance Andrew Fleck,Andrew Fleck Child Care Services - Alta Vista Child Care Centre,0,0,0,78,150,0,0,228,1349 Randall,Ottawa, Ontario, K1H 7T3,,
45.3603339,-75.7012166,Centre,Andrew Fleck Children’s Services/Service A L’Enfance Andrew Fleck,Andrew Fleck Child Care Services - Carleton Heights Child Care Centre,0,0,16,52,105,0,0,173,1660 Prince of Wales  Drive,Ottawa, Ontario, K2C 1P4,,
45.3744615,-75.6592929,Centre,Andrew Fleck Children’s Services/Service A L’Enfance Andrew Fleck,Andrew Fleck Child Care Services - Charles Hulse Day Care,0,0,24,26,60,0,0,110,2605 Alta Vista,Ottawa, Ontario, K1V 7T3,,
45.4265154,-75.6425114,Centre,Andrew Fleck Children’s Services/Service A L’Enfance Andrew Fleck,Andrew Fleck Child Care Services - Overbrook Daycare,0,15,24,0,28,0,0,67,557 Queen Mary,Ottawa, Ontario, K1K 1V9,,
45.4291368,-75.6874465,Centre,Andrew Fleck Children’s Services/Service A L’Enfance Andrew Fleck,Andrew Fleck Children's Services - 185 George St,0,30,0,0,0,0,0,30,185 George Street,Ottawa  , Ontario, K1N 5W6,,
45.4430645,-75.6356884,Centre,Andrew Fleck Children’s Services/Service A L’Enfance Andrew Fleck,Andrew Fleck Children's Services - Centre éducatif Sunflower Child Care Centre,0,20,32,0,0,0,0,52,700 Montreal,Ottawa, Ontario, K1A 0P7,,
45.4176232,-75.6947689,Centre,Andrew Fleck Children’s Services/Service A L’Enfance Andrew Fleck,Andrew Fleck Children's Services - Wellington,10,15,38,0,0,0,0,63,258 Lisgar,Ottawa, Ontario, K2P 0C9,,
45.4056038,-75.6540249,Centre,Andrew Fleck Children’s Services/Service A L’Enfance Andrew Fleck,Riverview Kindergarten and School Age Program,0,0,0,26,45,0,0,71,260 Knox  Crescent,Ottawa, Ontario, K1G 0K8,,
45.375301,-75.7730462,Centre,Anna Frolova,MATRESHKA,0,10,24,9,20,0,0,63,207 Woodroffe  Avenue,Ottawa, Ontario, K2A 3V1,,
45.2681303,-75.7679784,Centre,Barrhaven Child Care Centre,Barrhaven Child Care Centre,0,30,40,72,120,0,0,262,56 Kennevale  Drive,Nepean, Ontario, K2J 3B2,,
45.454471,-75.5985329,Centre,Beacon Learning Centre,Beacon Learning Centre,0,20,56,0,0,0,0,76,2379 Ogilvie  Road,Ottawa, Ontario, K1J 7N4,,
45.3259727,-75.8962551,Centre,Beaverbrook Montessori School Inc.,Beaverbrook Montessori School,0,15,38,0,0,0,0,53,990 Teron  Road,Kanata, Ontario, K2K 1K1,,
45.315965,-75.8284245,Centre,Bells Corners Cooperative Nursery School Inc.,Bells Corners Cooperative Nursery School,0,0,40,0,0,0,0,40,3955 Richmond  Road,Nepean, Ontario, K2H 5C5,,
45.3494184,-75.7722635,Centre,Bishop Hamilton Montessori School,Bishop Hamilton Montessori School,10,30,120,0,0,0,0,160,2199 Regency  Terrace,Ottawa, Ontario, K2C 1H2,,
45.2883635,-75.8674665,Centre,Bridlewood Community Church of the Nazarene,Bridlewood Child Learning Centre,0,15,48,0,0,0,0,63,2 Stonehaven  Drive,Kanata, Ontario, K2M 2P9,,
45.2940935,-75.7412676,Centre,BrightPath Kids Corp.,Little Scholars Montessori Academy,0,30,40,0,0,0,0,70,15-3500 Fallowfield Road,Ottawa, Ontario, K2J 4A7,,
,,Centre,BrightPath Kids Corp.,Little Scholars Montessori Daycare,0,15,32,0,0,0,0,47,4-2910 Woodroffe Avenue,Ottawa, Ontario, K2J 4G3,,
45.339778,-75.754896,Centre,BrightPath Kids Corp.,Little Scholars Montessori Learning Centre,0,10,20,0,0,0,0,30,1455 Woodroffe Avenue,Ottawa, Ontario, K2G 1W1,,
45.2449637,-75.6459272,Centre,BrightPath Kids Corp.,Manotick Montessori Casa Dei Bambini,0,27,44,0,0,0,0,71,5710 Longshadow Street,Ottawa, Ontario, K4M 1M2,,
,,Centre,BrightPath Kids Corp.,Strandherd Montessori Daycare,0,10,40,0,0,0,0,50,Unit 116 4100 Strandherd Drive,Ottawa, Ontario, K2J 4A7,,
45.270744,-75.9427261,Centre,Brown Bear Day Care Ltd.,Brown Bear Day Care - Carp Road,9,15,40,13,0,0,0,77,1079 Carp  Road,Stittsville, Ontario, K2S 1B9,,
45.3404749,-75.8987811,Centre,Canadian Children Learning Centres,Kanata North Early Learning Centre,10,20,24,0,0,0,0,54,103-232 Herzberg  Road,Kanata, Ontario, K2K 2A1,,
45.3952788,-75.7446665,Centre,Canadian Mothercraft of Ottawa-Carleton,Mothercraft Elmdale 2 Kindergarten School Age Program,0,0,0,52,210,0,0,262,407 Hilson Avenue,Ottawa  , Ontario, K1Z 6B9,,
45.3902615,-75.7500534,Centre,Canadian Mothercraft of Ottawa-Carleton,Mothercraft Ottawa Child Care Centre,10,30,48,20,0,0,0,108,475 Evered  Avenue,Ottawa, Ontario, K1Z 5K9,,
45.2819894,-75.7091959,Centre,Canadian Mothercraft of Ottawa-Carleton,Mothercraft Ottawa Waterbridge Program,0,0,16,60,105,0,0,181,75 Waterbridge  Drive,Nepean, Ontario, K2G 6T3,,
45.390998,-75.6810202,Centre,Capital Day Care Centre Inc.,Capital Day Care Centre,0,15,24,0,0,0,0,39,1230 Bank  Street,Ottawa, Ontario, K1S 3Y3,,
45.3660865,-75.6998709,Centre,Carleton Memorial Day Care Centre Inc.,Carleton Memorial Day Care Centre,10,25,48,0,0,0,0,83,740 Melfa Crescent,Ottawa, Ontario, K2C 0P2,,
45.4119672,-75.6782768,Centre,Carleton Preschool,Rainbow Kidschool,0,0,16,26,30,0,0,72,63 Evelyn  Avenue,Ottawa, Ontario, K1S 0C6,,
45.3831601,-75.7311787,Centre,Carlington Community Health Services Centre/Centre de santé communautaire Carlin,Annavale Headstart Nursery School,0,0,24,0,0,0,0,24,250 Anna  Avenue,Ottawa, Ontario, K1Z 7V6,,
45.3462581,-76.0373756,Centre,Carp Co-operative Nursery School Inc.,Carp Nursery School,0,0,16,0,0,0,0,16,3774 Carp  Road,Carp, Ontario, K0A 1L0,,
45.3628518,-75.7633406,Centre,Centre de l'enfant Aux 4 vents,Centre de l'enfant Aux 4 vents,0,15,24,52,60,0,0,151,2093 Bel-Air Promenade,Ottawa, Ontario, K2C 0X2,French,
,,Centre,Centre de l'enfant Aux 4 vents,Centre de l'enfant Aux 4 vents - Barrhaven,0,15,24,104,90,0,0,233,11 Claridge  Chemin,Ottawa, Ontario, K2J 5A3,French,
45.3943545,-75.6539246,Centre,CENTRE DES PETITS D'OTTAWA (2005) INC,Centre des Petits d'Ottawa (2005) Inc.,10,30,32,20,0,0,0,92,445 Pleasant Park  Chemin,Ottawa, Ontario, K1H 5M9,French,
,,Centre,"Centre Educatif ""La Clémentine"" d'Ottawa","Centre éducatif ""La Clémentine""  Marie Curie",0,30,24,52,60,0,0,166,839 Quinlan Rue,Ottawa, Ontario, K1G 1R8,French,
45.3484543,-75.6346287,Centre,"Centre Educatif ""La Clémentine"" d'Ottawa",Centre éducatif La Clémentine,0,15,24,52,75,0,0,166,3395 D'Aoust Avenue (French),Gloucester, Ontario, K1T 4A8,French,
45.2850013,-75.6827715,Centre,"Centre Educatif ""La Clémentine"" d'Ottawa",Centre Éducatif La Clémentine Bernard - Grandmaître,0,15,22,78,135,0,0,250,4170 Spratt  Road,Ottawa, Ontario, K1V 0Z5,French,
45.2677079,-75.693523,Centre,"Centre Educatif ""La Clémentine"" d'Ottawa",Centre éducatif la Clémentine Michel Dupuis,0,15,24,104,60,0,0,203,715 Brian good  Avenue,Ottawa  , Ontario, K4M 0H3,French,
45.4407148,-75.6305058,Centre,Centre Éducatif Brin de Soleil Inc.,Centre Éducatif Brin de Soleil,0,15,24,78,215,0,0,332,350 Den Haag  Promenade,Ottawa, Ontario, K1K 2S8,French,
45.4321843,-75.6592549,Centre,Centre Éducatif Brin de Soleil Inc.,Centre éducatif Brin de Soleil,0,15,24,40,75,0,0,154,349 Olmstead Rue,Ottawa, Ontario, K1L 1B1,French,
45.311635,-75.8822672,Centre,CENTRE ÉDUCATIF COEUR DES JEUNES,Centre éducatif Coeur des Jeunes Roger-Saint-Denis,0,10,16,44,45,0,0,115,186 Croissant Barrow,Kanata, Ontario, K2L 2C7,French,
45.3274453,-75.9224226,Centre,CENTRE ÉDUCATIF COEUR DES JEUNES,Centre éducatif Coeur des Jeunes Saint-Rémi,0,15,24,52,60,20,0,171,100 Walden Drive,Kanata, Ontario, K2L 2C7,French,
45.4908967,-75.4826815,Centre,Centre Éducatif Des Bécassines,Centre Éducatif Des Bécassines,10,30,32,26,30,0,0,128,511 Lacolle Way,Orléans, Ontario, K4A 0N9,French,
45.439962,-75.670303,Centre,Centre educatif les Debrouillards,Centre éducatif Les Débrouillards,0,0,16,0,45,0,0,61,135 Alice  Rue,Ottawa, Ontario, K1L 7X5,French,
45.4326172,-75.6672715,Centre,Centre educatif les Debrouillards,Centre éducatif les Débrouillards-école Mauril-Bélanger,0,0,16,20,30,0,0,66,307 Montgomery  Rue,Vanier, Ontario, K1L 7W8,French,
45.4401044,-75.6703187,Centre,Centre educatif les Debrouillards,Centre éducatif les débrouillards-Trille des Bois,0,0,0,78,115,20,0,213,140 Genest  Rue,Vanier, Ontario, K1L 7Y9,French,
,,Centre,Centre parascolaire Alpha 3-12 d'Orléans Inc.,"Centre parascolaire ""Alpha 3-12"" d'Orléans Inc.",0,25,48,76,135,0,0,284,1917 Gardenway Chemin,Orléans, Ontario, K4A 2Y7,French,
,,Centre,Centre Parascolaire Parasol,Garderie Le Parasol,0,0,24,80,120,0,0,224,14 Four Season Drive,Nepean, Ontario, K2E 7P8,French,
45.3490108,-75.9366053,Centre,"Centre préscolaire et parascolaire ""L'Étoile Filante"" de Kanata",Centre préscolaire et parascolaire L Étoile filante de Kanata nord,10,15,32,52,60,0,0,169,1385 Halton Terrasse,Kanata, Ontario, K2K 2P9,French,
45.2784938,-75.8592429,Centre,"Centre préscolaire et parascolaire ""L'Étoile Filante"" de Kanata",Centre préscolaire et parascolaire l'Étoile filante de Kanata Sud,0,20,32,40,60,0,0,152,17 Bridgestone  Drive,Kanata, Ontario, K2K 2P9,French,
45.439962,-75.670303,Centre,CENTRE PSYCHOSOCIAL,Centre éducatif Les Petites Frimousses et Centre éducatif spécialisé L'Image,10,15,12,0,0,0,0,37,135 Alice Rue,Ottawa, Ontario, K1L 7X5,French,
45.4382455,-75.628971,Centre,CENTRE PSYCHOSOCIAL,Garderie Éducative Renée Tassé,10,15,24,0,0,0,0,49,801 aviation Parkway,Ottawa, Ontario, K1K 4R3,French,
45.42165,-75.6691854,Centre,Centre Youville Centre Ottawa-Carleton Inc,Centre Youville Centre,40,15,0,0,0,0,0,55,150 Mann  Avenue,Ottawa, Ontario, K1N 8P4,,
45.345625,-75.7705065,Centre,Centrepointe Child Care Corporation,Centrepointe Child Care Centre,0,15,60,0,0,0,0,75,75 Hemmingwood  Way,Nepean, Ontario, K2G 5T6,,
45.411749,-75.6980824,Centre,Centretown Parents' Day Care Inc.,Centretown Parents' Day Care,6,25,0,0,0,0,0,31,94 James Street,Ottawa, Ontario, K1R 5M3,,
45.4150387,-75.7047362,Centre,Centretown Parents' Day Care Inc.,Centretown Parent's Extended care,0,0,16,26,30,0,0,72,376 Gloucester Street,Ottawa, Ontario, K1R 5E8,,
45.359059,-75.644434,Centre,Charlotte Birchard Centres of Early Learning,Greenboro Children's Centre,0,15,48,0,0,0,0,63,1400 Cahill Drive,Ottawa, Ontario, K1T 2Y9,,
45.3952788,-75.7446665,Centre,Charlotte Birchard Centres of Early Learning,Westboro Children's Centre,0,15,56,35,83,0,0,189,407 Hilson Avenue,Ottawa, Ontario, K1Z 6B9,,
45.4269785,-75.6045685,Centre,Children's Aid Society of Ottawa/Société de l'aide à l'enfance d'Ottawa,Children's Aid Society Headstart Nursery,0,10,16,0,0,0,0,26,1602 Telesat  Court,Gloucester, Ontario, K1B 1B1,,
,,Centre,Children's Castle Daycare,Children's Castle Daycare,10,15,56,0,0,0,0,81,1187- 89 Huntclub  Road,Ottawa, Ontario, K1V 8S4,,
45.4018228,-75.6520999,Centre,CHILDREN'S HOSPITAL OF EASTERN ONTARIO - OTTAWA CHILDREN'S TREATMENT CENTRE,Children's Hospital of Eastern Ontario-Ottawa Children's Treatment Centre Preschool,0,0,18,0,0,0,0,18,395 Smyth Road,Ottawa, Ontario, K1H 8L2,,
45.4370235,-75.5522175,Centre,CHILDREN'S UNIVERSE DAYCARE - BLACKBURN HAMLET,Children's Universe Day Care - Blackburn Hamlet,10,0,22,0,0,0,0,32,2919 Innes  Road,Gloucester, Ontario, K1B 4K5,,
45.2880955,-75.8715051,Centre,Children's Universe Daycare Centres Inc.,Children's Universe Daycare - Kanata,10,15,24,0,0,0,0,49,80 Terence Matthews  Crescent,Kanata, Ontario, K2M 2B4,,
45.3393107,-75.9020151,Centre,Children's Universe Daycare Centres Inc.,Children's Universe Daycare-Kanata North,20,30,40,0,0,0,0,90,101 Schneider  Road,Ottawa, Ontario, K2K 1Y3,,
45.2849097,-75.8616762,Centre,Children's Village of Ottawa-Carleton,Children's Village at Bridlewood,0,0,0,52,105,0,0,157,63 Bluegrass  Drive,Kanata, Ontario, K2M 1G2,,
45.357145,-75.9270719,Centre,Children's Village of Ottawa-Carleton,Children's Village at Klondike,0,0,0,40,90,0,0,130,1032 Klondike  Road,Kanata, Ontario, K2K 1X7,,
45.4217977,-75.4163491,Centre,Children's Village of Ottawa-Carleton,Children's Village at Navan,0,0,16,20,45,0,0,81,1375 Colonial  Road,Ottawa, Ontario, K4B 1N1,,
45.2881526,-75.7174614,Centre,Children's Village of Ottawa-Carleton,Children's Village at Stoneway,0,0,0,60,115,0,0,175,170 Stoneway  Drive,Nepean, Ontario, K2G 6R2,,
45.2836373,-75.8472675,Centre,Children's Village of Ottawa-Carleton,Lady Macdonald Centre,0,15,24,0,0,0,0,39,401 Stonehaven  Drive,Kanata, Ontario, K2M 3B5,,
45.3814725,-75.7479798,Centre,Churchill Carling Day Care Ltd.,Churchill Carling Daycare,0,15,26,0,0,0,0,41,724 Churchill Avenue North,Ottawa, Ontario, K1Z 5G5,,
45.380937,-75.7502162,Centre,Churchill Carling Day Care Ltd.,Churchill Carling Daycare KSA Division,0,10,16,0,0,0,0,26,715 Roosevelt  Avenue,Ottawa, Ontario, K2A 2A8,,
45.348868,-75.7167071,Centre,CITY OF OTTAWA,Borden Farm Child Care Centre,0,15,32,0,0,0,0,47,170 Chesterton  Drive,Ottawa, Ontario, K2E 5V1,,
45.4396205,-75.6943005,Centre,CITY OF OTTAWA,Centre éducatif Pinocchio Educational Centre,0,15,16,0,0,0,0,31,111 Sussex  Drive,Ottawa, Ontario, K1N 5A1,French,
45.4211868,-75.6904002,Centre,CITY OF OTTAWA,Centre Éducatif St. Luc/St. Luke's Child Care Centre,0,15,32,0,0,0,0,47,110 Laurier  Avenue West,Ottawa, Ontario, K1P 1J1,,
,,Centre,CITY OF OTTAWA,Centre Éducatif Tournesol,0,10,24,0,0,0,0,34,194 McArthur  Road,Ottawa, Ontario, K1L 6P5,French,
45.442584,-75.5967967,Centre,CITY OF OTTAWA,Charmian Craven Child Care Centre,0,15,32,0,0,0,0,47,2071 Jasmine  Crescent,Ottawa, Ontario, K1J 7W2,,
,,Centre,CITY OF OTTAWA,Dr. Ernest Couture Child Care Centre,0,10,24,0,0,0,0,34,2185 Riverside  Drive East,Ottawa, Ontario, K1H 8K5,,
45.3269566,-75.8972381,Centre,CITY OF OTTAWA,Elsie Stapleford Child Care Centre,0,0,40,0,0,0,0,40,1000 Teron  Road,Ottawa, Ontario, K2K 1R1,,
45.3732447,-75.7397721,Centre,CITY OF OTTAWA,Esther By Child Care Centre,0,10,24,0,0,0,0,34,1550 Caldwell  Avenue,Ottawa, Ontario, K1Z 8M7,,
,,Centre,CITY OF OTTAWA,Foster's Farm Day Care Centre,0,0,32,0,0,0,0,32,1065 Ramsay  Crescent,Ottawa, Ontario, K2B 7Z9,,
45.356947,-75.7320724,Centre,CITY OF OTTAWA,Huron Early Learning Centre,0,15,32,0,0,0,0,47,24 Capilano  Drive,Ottawa, Ontario, K2E 6G2,,
45.274365,-75.7397299,Centre,CITY VIEW CENTRE FOR CHILD & FAMILY SERVICES,City View Centre for Child & Family Services (Group Care),0,30,96,0,0,0,0,126,1099 Longfields  Drive,Nepean, Ontario, K2J 5L2,,
45.3858581,-75.6950041,Centre,Colonel By Child Care Centre,Colonel By Child Care Centre,10,15,32,0,0,0,0,57,1125 Colonel By Drive,Ottawa, Ontario, K1S 5B6,,
,,Centre,Community Connection (Cumberland Township),Cumberland Hub Day Care,0,15,56,20,24,0,0,115,103-261  Tompkins  Avenue,Orléans, Ontario, K1E 3K9,,
45.3548162,-75.7368607,Centre,Community Co-operative Preschool Inc.,Community Coop Preschool,0,0,40,0,0,0,0,40,8 Withrow  Avenue,Nepean, Ontario, K2G 2H6,,
45.4274587,-75.6484876,Centre,Congregation of the Antonine Sisters Ottawa,Garderie Providence Day Care Centre,0,30,32,0,0,0,0,62,998 Frances  Street,Ottawa, Ontario, K1K 3L5,French,
45.4603732,-75.5981082,Centre,Conseil des écoles catholiques du Centre-Est,Petits pas à trois école La Vérendrye,0,0,16,0,0,0,0,16,614 Eastvale Promenade,Gloucester, Ontario, K1J 6Z6,French,
45.4325383,-75.6815439,Centre,Conseil des écoles catholiques du Centre-Est,Programme Petits pas à trois - École catholique Sainte-Anne,0,0,16,0,0,0,0,16,235 Beausoleil Drive,Ottawa, Ontario, K1N 8X8,French,
45.4321843,-75.6592549,Centre,Conseil des écoles catholiques du Centre-Est,Programme Petits pas à trois école Horizon Jeunesse,0,0,16,0,0,0,0,16,349 Olmstead  Rue,Vanier, Ontario, K1L 1B1,French,
45.2705459,-75.9034721,Centre,Conseil des écoles catholiques du Centre-Est,Programme Petits pas à trois école Jean Paul II,0,0,16,0,0,0,0,16,5473 Abbott Rue Est,Stittsville, Ontario, K2S 0A8,French,
45.2707699,-75.7317958,Centre,Conseil des écoles catholiques du Centre-Est,Programme Petits pas à trois école Jean-Robert-Gauthier,0,0,16,0,0,0,0,16,651 Chapman Mills  Drive,Nepean, Ontario, K2J 0W7,French,
,,Centre,Conseil des écoles catholiques du Centre-Est,Programme Petits pas à trois école Marius-Barbeau,0,0,16,0,0,0,0,16,1345 Nottinghill Avenue,Ottawa, Ontario, K1V 6T3,French,
,,Centre,Conseil des écoles catholiques du Centre-Est,Programme Petits pas à trois école Reines-des-Bois,0,0,16,0,0,0,0,16,1450 Dufour  Rue,Orléans, Ontario, K1E 1E6,French,
45.3114514,-75.8824074,Centre,Conseil des écoles catholiques du Centre-Est,Programme Petits pas à trois école Roger-St-Denis,0,0,16,0,0,0,0,16,186 Barrow  Crescent,Kanata, Ontario, K2L 2C7,French,
45.3521612,-75.622866,Centre,Conseil des écoles catholiques du Centre-Est,Programme Petits pas à trois école Sainte Bernadette,0,0,16,0,0,0,0,16,3781 Sixth  Rue,Ottawa, Ontario, K1T 1K5,French,
45.465596,-75.5213983,Centre,Conseil des écoles catholiques du Centre-Est,Programme Petits pas à trois école St-Joseph,0,0,16,0,0,0,0,16,6664 Carrière Rue,Orléans, Ontario, K1C 1J4,French,
45.4528099,-75.5918012,Centre,CONSEIL DES ÉCOLES PUBLIQUES DE L'EST DE L'ONTARIO,Centre éducatif Séraphin-Marion,0,15,24,0,0,0,0,39,2147 Loyola  Avenue (French),Gloucester, Ontario, K1J 7W3,French,
45.4346398,-75.6602546,Centre,Cooperative Para-scolaire Vanier Co-operative School-Age Program Inc.,Vanier Co-operative Childcare Centre,0,15,24,0,0,0,0,39,236 Levis  Avenue,Vanier, Ontario, K1L 6H8,,
45.4065559,-75.7081212,Centre,Dalhousie Parents' Daycare Centre,Dalhousie Parents Daycare Centre,10,30,32,0,0,0,0,72,391 Booth  Street,Ottawa, Ontario, K1R 7K5,,
45.2725435,-75.7588118,Centre,Deborah Keedwell,Little Pickles & Poppets,0,15,0,0,0,0,0,15,3013 Jockvale Road,Ottawa, Ontario, K2J 4E4,,
45.304773,-75.905847,Centre,Deborah Keedwell,"Little Pickles, Katimavik",0,15,0,0,0,0,0,15,200 Katimavik Road,Ottawa, Ontario, K2L 4A2,,
45.304773,-75.905847,Centre,Deborah Keedwell,"Little Poppets, Katimavik",12,15,0,0,0,0,0,27,200 Katimavik Road,Ottawa, Ontario, K2L 4A2,,
45.2747195,-75.767901,Centre,Deborah Keedwell,Pickles & Poppets Nursery School,0,9,16,0,0,0,0,25,2900 Jockvale  Road,Barrhaven, Ontario, K2J 4J5,,
45.304773,-75.905847,Centre,Deborah Keedwell,Pickles & Poppets Nursery School,0,0,24,0,0,0,0,24,200 Katimavik Road,Ottawa, Ontario, K2L 4A2,,
45.4055218,-75.7188996,Centre,Devonshire School Age Program of Ottawa-Carleton,Devonshire Child Care Centre,0,0,16,78,90,0,0,184,100 Breezehill Avenue North,Ottawa, Ontario, K1Y 2H5,,
45.2802435,-75.9070153,Centre,Dolphin Tale Child Care Ltd.,Dolphin Tale Child Care Ltd.,20,30,55,0,16,0,0,121,59 Iber  Road,Ottawa, Ontario, K2S 1E7,,
45.3999036,-75.7058862,Centre,Dow's Lake Day Care/Garderie Lac Dow Inc.,Dow's Lake Day Care / Garderie Lac Dow,0,15,24,0,0,0,0,39,580 Booth  Street,Ottawa, Ontario, K1A 0E4,,
45.3765837,-75.7521682,Centre,Early Beginnings Multicultural Child Development Centre of Ottawa-Carleton,Early Beginnings Multicultural Child Development Centre of Ottawa-Carleton,0,15,32,16,0,0,0,63,11 Nadolny Sachs  Private,Ottawa, Ontario, K2A 1R9,,
45.3428773,-75.7624546,Centre,Earth Kidz Early Learning Centre Inc.,Earth Kidz Early Learning Centre,0,15,16,0,0,0,0,31,117 Centrepointe Drive,Ottawa, Ontario, K2G 5X3,,
45.4291855,-75.6674524,Centre,Edgewood Child Care Centre,Edgewood Child Care Centre,0,0,40,0,0,0,0,40,9 Stevens Avenue,Ottawa, Ontario, K1K 1K4,,
45.2607872,-75.766518,Centre,Educara Inc.,Educara Montessori Child Care – Barrhaven,0,15,16,0,0,0,0,31,275 Tartan Drive,Ottawa, Ontario, K2J 3T1,,
45.428245,-75.658898,Centre,Église Mon Rochers,C.P.E. du Rocher,10,15,0,0,0,0,0,25,235 Donald  Rue,Ottawa, Ontario, K1K 1N1,French,
45.4516082,-75.6803534,Centre,Elmwood School Incorporated,Elmwood School,0,0,16,0,0,0,0,16,261 Buena Vista Road,Ottawa  , Ontario, K1M 0V9,,
45.4296244,-75.6486805,Centre,Fairview Child Care Centre of Ottawa Inc.,Fairview Child Care Centre,0,15,32,0,0,0,0,47,437 Donald  Street,Ottawa, Ontario, K1K 1L8,,
45.3466833,-75.8136169,Centre,FERGUSLEA PROPERTIES LIMITED,Accora Centre,0,0,0,0,20,0,0,20,98 Woodridge Crescent,Ottawa  , Ontario, K2B 7S9,,
45.4404136,-75.6778554,Centre,Fern Hill School (Ottawa) Inc.,Fern Hill School,0,15,44,40,30,0,0,129,50 Vaughan  Street,Ottawa, Ontario, K1M 1X1,,
45.3773761,-75.7442106,Centre,FIRST JOURNEY MONTESSORI INC.,First Journey Montessori Inc.,0,15,16,0,0,0,0,31,1551 Laperriere Avenue,Ottawa, Ontario, K1Z 7T2,,
45.3677059,-75.6626708,Centre,Future Scolars Montessori Acedemy Inc.,Future Scholars Montessori Academy Inc.,7,15,24,0,0,0,0,46,1920 Bank Street Street,Ottawa, Ontario, K1V 7Z8,,
45.43364,-75.683633,Centre,Garderie Beausoleil Inc.,Garderie Beausoleil,0,15,48,0,0,0,0,63,333 York  Street,Ottawa, Ontario, K1N 8W4,French,
45.4233267,-75.681874,Centre,Garderie Bernadette Child Care Centre,Garderie Bernadette Child Care Centre,10,15,24,0,0,0,0,49,100 Thomas More,Ottawa, Ontario, K1N 6N5,,
45.1822662,-75.35532,Centre,Garderie des Amis Embrun Inc.,Garderie des amis-Marionville,0,0,0,26,15,0,0,41,9575 ch. Marionville Chemin,Ottawa, Ontario, K4R 1E5,French,
,,Centre,Garderie Tunney's Day Care,Garderie Tunney's Day Care,10,25,32,0,0,0,0,67,"Main Bldg. Wing 1200,Stats. Canada,",Ottawa, Ontario, K1A 0T6,French,
45.3958961,-75.7255787,Centre,German Evangelical Martin Luther Church of Ottawa Inc.,Martin Luther Kindergarten,0,0,26,0,0,0,0,26,579 Parkdale  Avenue,Ottawa, Ontario, K1Y 4K1,,
45.4021215,-75.6914914,Centre,Glebe Co-operative Nursery School Inc.,Glebe Co-operative Nursery School Inc.,0,0,24,0,0,0,0,24,175 Third  Avenue,Ottawa, Ontario, K1S 2K2,,
45.403463,-75.692491,Centre,Glebe Montessori School Inc.,Glebe Montessori School,0,19,72,0,0,0,0,91,650 Lyon Street South,Ottawa, Ontario, K1S 3Z7,,
45.403319,-75.6826392,Centre,Glebe Parents' Day Care Centre,Glebe Parents' Day Care Centre,10,30,40,0,30,0,0,110,10 Fifth  Avenue,Ottawa, Ontario, K1S 5N5,,
45.4064351,-75.6853532,Centre,Glebe Parents' Day Care Centre,Glebe Parents' Daycare First Avenue Campus,0,0,16,43,56,0,0,115,73 First Avenue,Ottawa, Ontario, K1S 2G1,,
45.3932176,-75.6841527,Centre,Glebe Parents' Day Care Centre,Glebe Parents' Daycare Hopewell Campus,0,0,16,78,150,0,0,244,17 Hopewell  Avenue,Ottawa, Ontario, K1S 2Y7,,
45.4007855,-75.6906649,Centre,Glebe Parents' Day Care Centre,Glebe Parent's Daycare Mutchmor Campus,0,0,0,52,60,0,0,112,185 Fifth  Avenue,Ottawa, Ontario, K1S 2N1,,
45.296136,-75.8848871,Centre,Glen Cairn Co-operative Preschool Inc.,Glen Cairn Coop Preschool,0,0,24,0,0,0,0,24,186 Morrena  Road,Kanata, Ontario, K2L 1E1,,
45.2882425,-75.6730599,Centre,Global Child Care Services/Services globaux pour enfants,Canyon Walk Child Care Centre,0,0,40,0,0,0,0,40,4175-B Spratt Road,Ottawa, Ontario, K1V 1T6,,
45.4796506,-75.4874474,Centre,Global Child Care Services/Services globaux pour enfants,Fallingbrook School Age Program,0,0,0,67,120,0,0,187,679-B Deancourt Crescent,Orléans, Ontario, K4A 3E1,,
45.449233,-75.537682,Centre,Global Child Care Services/Services globaux pour enfants,Forest Valley School Age Program,0,0,0,47,135,0,0,182,1570A Forest Valley  Drive,Ottawa, Ontario, K1C 6X7,,
45.4583385,-75.5665939,Centre,Global Child Care Services/Services globaux pour enfants,Garderie Heritage Child Care Centre,10,15,32,0,0,0,0,57,1425 St.Joseph Boulevard,Gloucester, Ontario, K1C 7K9,,
45.2097115,-75.6625086,Centre,Global Child Care Services/Services globaux pour enfants,Rideau Valley Child Care Centre,10,25,40,26,38,0,0,139,5858 Rideau Valley  Drive North,Manotick, Ontario, K4M 1B3,,
45.4762045,-75.4728829,Centre,Global Child Care Services/Services globaux pour enfants,Trillium School Age Program,0,0,0,26,90,0,0,116,1515 B Varennes  Boulevard,Orléans, Ontario, K4A 3S1,,
45.3672895,-75.6255748,Centre,Global Child Care Services/Services globaux pour enfants,Winterwood Child Care Centre,10,15,32,0,0,0,0,57,89 Lorry Greenberg Drive,Ottawa, Ontario, K1T 3J6,,
45.4046815,-75.6889547,Centre,Good Morning Playgroup Inc.,Good Morning Preschool,0,0,24,0,0,0,0,24,174 First  Avenue,Ottawa, Ontario, K1S 2G4,,
45.381566,-75.6346565,Centre,Hawthorne Meadows Nursery School,Cornerstone Children's Centre/Heatherington Nursery School,0,15,56,0,0,0,0,71,2330 Don Reid  Drive,Ottawa, Ontario, K1H 1E1,,
45.3953725,-75.6145049,Centre,Hawthorne Meadows Nursery School,Hawthorne Meadows Nursery School,0,0,24,0,0,0,0,24,2244 Russell Road,Ottawa, Ontario, K1G 1B8,,
45.3522315,-75.6416133,Centre,Imagination Station Children's Learning Centre,The Imagination Station Children's Learning Centre,0,10,39,0,0,0,0,49,3581 Albion  Road,Ottawa, Ontario, K1T 1A2,,
45.431142,-75.6600603,Centre,"Inuuqatigiit Centre for Inuit Children, Youth and Families",The Sivummut Head Start Program,0,5,24,0,0,0,0,29,230 McArthur  Avenue,Ottawa, Ontario, K1L 6P5,,IN
45.4311512,-75.6603774,Centre,"Inuuqatigiit Centre for Inuit Children, Youth and Families",Tumiralaat Inuit Child Care Centre,0,10,18,0,0,0,0,28,224 McArthur  Avenue,Ottawa, Ontario, K1L 6P5,,IN
45.3744515,-75.7516094,Centre,Jewish Youth Library of Ottawa,Westboro Jewish Montessori Pre-school,0,11,19,0,0,0,0,30,31 Nadolny Sachs Private,Ottawa, Ontario, K2A 1R9,,
45.3307415,-75.7028457,Centre,Joanna Stankiewicz,Little Explorers Reggio Emilia Pre-School,0,15,16,0,0,0,0,31,6 Deakin  Street,Ottawa, Ontario, K2E 1C4,,
45.2924463,-75.9238636,Centre,Kanata Academy Private School Reg. Inc.,Kanata Academy Private School Reg. Inc.,0,0,24,0,0,0,0,24,180 Huntmar  Drive,Ottawa, Ontario, K2S 1B9,,
45.2845607,-75.8773614,Centre,Kanata Montessori School,Kanata Montessori School,0,30,96,0,0,0,0,126,355 Michael Cowpland  Drive,Kanata, Ontario, K2M 2C5,,
45.3761095,-75.9549846,Centre,Kanata Montessori School,Kanata Montessori School (North Campus),0,15,40,0,0,0,0,55,630 Cameron Harvey Drive,Kanata, Ontario, K2K 1X7,,
45.3524842,-75.9174886,Centre,Kanata Research Park Family Centre,Kanata Research Park Family Centre,0,30,61,26,30,0,0,147,100 Helmsdale  Drive,Kanata, Ontario, K2K 2S5,,
45.3548528,-75.9270808,Centre,Kanata Research Park Family Centre,Kanata Research Park Family Centre - Summer Camp program,0,0,0,0,30,0,0,30,325 Sandhill Road,kanata, Ontario, K2K 1X7,,
45.3881512,-75.7288177,Centre,KanCar Community Children's Centre Inc.,The Children's Place (Annex),0,5,32,0,0,0,0,37,1160 Carling  Avenue,Ottawa, Ontario, K1Z 7K6,,
45.3883338,-75.7282116,Centre,KanCar Community Children's Centre Inc.,The Children's Place (Carling),10,15,40,0,0,0,0,65,1150 Carling  Avenue,Ottawa, Ontario, K1Z 7K5,,
45.339316,-75.9060957,Centre,KanCar Community Children's Centre Inc.,The Children's Place (Kanata),20,45,64,0,30,0,0,159,310 Legget  Drive,Kanata, Ontario, K2K 1Y6,,
45.3395042,-75.9055834,Centre,KanCar Community Children's Centre Inc.,The Children's Place (Megan's Place),0,0,24,24,90,0,0,138,312 Legget  Drive,Kanata, Ontario, K2K 1Y6,,
45.3100655,-75.8899825,Centre,Katimavik Cooperative Nursery School,Katimavik Cooperative Nursery School,0,0,30,0,0,0,0,30,64 Chimo Drive,Kanata, Ontario, K2L 1Y9,,
45.3415692,-75.9231126,Centre,Kids & Company Ltd.,Kids & Company - Kanata,10,15,16,0,15,0,0,56,11 Hines  Road,Kanata, Ontario, K2K 2X1,,
45.2853565,-75.869226,Centre,Kids & Company Ltd.,Kids & Company Eagleson,30,60,40,0,15,0,0,145,110 Michael Cowpland Drive,Kanata, Ontario, K2M 1X3,,
,,Centre,Kids & Company Ltd.,Kids & Company Westboro,20,30,32,0,0,0,0,82,317 McRae Street,Ottawa, Ontario, K1Z 5T9,,
45.4181145,-75.7038199,Centre,Kids & Company Ltd.,Ottawa-Albert - Kids and Company,10,30,30,0,0,0,0,70,360 Albert  Street,Ottawa, Ontario, K1R 7X7,,
45.3175525,-75.8863507,Centre,KIDS KINGDOM ORLEANS DAYCARE INC.,Kids Kingdom,10,45,64,0,0,0,0,119,66 Hearst Way,Kanata, Ontario, K2L 2P4,,
45.4896643,-75.4794271,Centre,KIDS KINGDOM ORLEANS DAYCARE INC.,Kids Kingdom,10,30,40,0,0,0,0,80,1290 Trim Road,Orleans, Ontario, K1C 1T1,,
45.4023726,-75.7239183,Centre,Le Carrefour d'Ottawa,Le Carrefour d'Ottawa,0,0,32,78,105,0,0,215,35 Melrose  Avenue (French),Ottawa, Ontario, K1Y 1T8,French,
45.3900718,-75.6315952,Centre,Le Carrefour d'Ottawa,Le Carrefour d'Ottawa - Arch,0,15,24,91,90,0,0,220,2198 Arch  Rue,Ottawa, Ontario, K1G 2H7,French,
45.3070052,-75.5848901,Centre,Leitrim Montessori Preschool Inc.,Leitrim Montessori Preschool,0,0,48,0,0,0,0,48,4861 Bank  Street,Ottawa, Ontario, K1X 1G6,,
45.3801294,-75.6306894,Centre,Les services à l'enfance Grandir Ensemble,Le Carrousel,0,15,0,0,0,0,0,15,431 St-Laurent Boulevard,Ottawa, Ontario, K1K 2Z8,French,
45.3628612,-75.776885,Centre,Les services à l'enfance Grandir Ensemble,Le Cerf-Volant - Édouard-Bond,0,10,16,78,90,20,0,214,920 Parkhaven Avenue (French),Ottawa, Ontario, K2B 5K3,French,
,,Centre,Les services à l'enfance Grandir Ensemble,"Le Cerf-Volant, école Marius Barbeau",0,15,24,78,90,20,0,227,1345 Nottinghill Avenue (French),Ottawa, Ontario, K1V 6T3,French,
45.3521612,-75.622866,Centre,Les services à l'enfance Grandir Ensemble,"Le Cerf-Volant, école Sainte-Bernadette",0,0,0,104,90,20,0,214,3781 Sixth  Rue,Ottawa, Ontario, K1T 1K5,French,
45.352108,-75.7677218,Centre,Les services à l'enfance Grandir Ensemble,"Le Cerf-Volant, école Terre-des-Jeunes",0,15,24,130,150,40,0,359,1303 Fellows Chemin,Ottawa, Ontario, K2C 2V8,French,
45.3636723,-75.672949,Centre,Les services à l'enfance Grandir Ensemble,"Le Cerf-Volant, George-Étienne-Cartier",0,15,24,91,100,20,0,250,880 Thorndale Drive,Ottawa, Ontario, K1V 6Y3,French,
45.3364796,-75.788998,Centre,Les services à l'enfance Grandir Ensemble,"Le Cerf-Volant, Ottawa Ouest",0,0,0,52,60,20,0,132,20 Harrison,Ottawa  , Ontario, K2H 7N5,French,
45.287224,-75.8461525,Centre,Les services à l'enfance Grandir Ensemble,"Le Manège, Élisabeth-Bruyère",0,10,16,65,105,20,0,216,100 Stonehaven Promenade,Ottawa  , Ontario, K2M 2H4,French,
45.2705459,-75.9034721,Centre,Les services à l'enfance Grandir Ensemble,"Le Manège, Jean-Paul II",0,15,24,65,105,20,0,229,5473 Abbott,Ottawa  , Ontario, K2S 0A8,French,
45.270208,-75.731696,Centre,Les services à l'enfance Grandir Ensemble,"Le Manège, Jean-Robert Gauthier",0,10,24,78,105,20,0,237,651 Chapman Mills Promenade,Ottawa  , Ontario, K2J 4X1,French,
,,Centre,Les services à l'enfance Grandir Ensemble,"Le Manège, Pierre-Elliott-Trudeau",0,10,16,78,120,20,0,244,601 Longfield Promenade,Ottawa  , Ontario, K2J 4X1,French,
45.2457337,-75.7360772,Centre,Les services à l'enfance Grandir Ensemble,"Le Manège, Sainte-Kateri",0,10,16,78,105,20,0,229,2450 River Mist,Ottawa  , Ontario, K2J 4X1,French,
45.4325461,-75.6168691,Centre,Little Acorn Early Learning Centre Inc,Little Acorn Early Learning Centre,0,30,48,10,0,0,0,88,1921  Ogilvie Road,Ottawa, Ontario, K1J 0B9,,
45.355979,-75.640292,Centre,LITTLE MUNCHKINS HIDEOUT INC.,Little Munchkins Hideout Daycare Centre,0,10,20,0,0,0,0,30,1426 Hunt Club  Road,Ottawa, Ontario, K1T 1M6,,
45.4058555,-75.6632987,Centre,Lycée Claudel,Lycée Claudel,0,0,48,0,0,0,0,48,1635 Riverside Drive,Ottawa, Ontario, K1G 0E5,French,
45.435094,-75.6615936,Centre,Makonsag Aboriginal Head Start Inc.,Makonsag Aboriginal Head Start,0,0,36,0,0,0,0,36,297 Olmstead Street,Vanier, Ontario, K1L 7J9,,IN
45.4502307,-75.6563877,Centre,Manor Park Community Council,Before and After School in Manor Park,0,0,0,64,135,0,0,199,100 Braemar Street,Ottawa, Ontario, K1K 3C9,,
45.2220555,-75.6865968,Centre,Manotick Co-operative Nursery School,Manotick Co-operative Nursery School,0,0,24,0,0,0,0,24,5572 Doctor Leach Drive,Manotick, Ontario, K4M 1C8,,
45.3307935,-75.6730139,Centre,Military Family Resource Centre of the National Capital Region,MFRC-NCR Playtime Platoon Childcare Centre /Garderie,0,10,20,0,0,0,0,30,330 Croil Private,Gloucester, Ontario, K1V 1J1,,
45.4685725,-75.5354349,Centre,Mouvement d'implication francophone d'Orléans (M.I.F.O.),MIFO école de l'Odyssée,0,15,24,52,180,0,0,271,1770 Grey Nuns  Promenade,Orléans, Ontario, K1C 1C3,French,
45.4215343,-75.604215,Centre,Mouvement d'implication francophone d'Orléans (M.I.F.O.),MIFO École des pins,0,10,16,26,60,0,0,112,1487 Ridgebrook Promenade,Ottawa, Ontario, K1B 4K6,French,
45.474038,-75.5523879,Centre,Mouvement d'implication francophone d'Orléans (M.I.F.O.),MIFO école des Voyageurs,0,15,16,78,180,0,0,289,6030 Voyageur  Promenade,Orléans, Ontario, K1C 2T1,French,
45.456894,-75.5323183,Centre,Mouvement d'implication francophone d'Orléans (M.I.F.O.),MIFO école Étoile de l'Est,0,0,48,78,240,0,0,366,6220 Beauséjour Promenade,Orléans, Ontario, K1C 8E4,French,
,,Centre,Mouvement d'implication francophone d'Orléans (M.I.F.O.),MIFO- école Notre Dame des Champs,0,15,16,104,210,0,0,345,6280 Renaud Rue,Ottawa, Ontario, K4B 1H9,French,
45.432582,-75.5665781,Centre,Mouvement d'implication francophone d'Orléans (M.I.F.O.),MIFO école Sainte Marie,0,0,16,40,60,0,0,116,2599 Innes Chemin,Ottawa, Ontario, K1B 3J8,French,
45.465596,-75.5213983,Centre,Mouvement d'implication francophone d'Orléans (M.I.F.O.),MIFO école St. Joseph d'Orléans,0,0,32,80,120,0,0,232,6664 Carrière Rue,Orléans, Ontario, K1C 1J4,French,
45.4736215,-75.4815539,Centre,Mouvement d'implication francophone d'Orléans (M.I.F.O.),MIFO-école des Pionniers,0,10,16,78,240,0,0,344,720  Merkley Promenade East,Orléans, Ontario, K4A 1L8,French,
45.3517176,-75.7946131,Centre,Muslim Association Canada,MAC Preschool and Childcare:Abraar Location,0,15,24,0,0,0,0,39,1085 Grenon Avenue,Ottawa, Ontario, K2B 8L7,,
45.2528975,-75.6968123,Centre,My Little Preschool Inc.,My Little Preschool,0,10,16,0,0,0,0,26,815 River  Road,Manotick, Ontario, K4M 1B2,,
45.3358648,-75.9111111,Centre,Nature and Nurture Childcare Services Inc.,Nature and Nurture Childcare Services Inc.,0,25,24,0,0,0,0,49,50 Steacie Drive,Kanata, Ontario, K2K 2A9,,
45.1305818,-75.7116723,Centre,North Gower Co-operative Nursery School Inc.,North Gower Co-operative Nursery School,0,0,22,0,0,0,0,22,2300 Community  Way,North Gower, Ontario, K0A 2T0,,
45.457144,-75.5691897,Centre,Orchardview Montessori School Inc.,Orchardview Montessori School,0,15,24,0,0,0,0,39,1367 St.Joseph  Boulevard,Orléans, Ontario, K1C 7K9,,
45.4663445,-75.5447921,Centre,Orleans Cooperative Nursery School/The Orleans Preschool Inc.,The Orleans Preschool,0,10,16,0,0,0,0,26,1490 Youville  Drive,Orléans, Ontario, K1C 2X8,,
45.5009485,-75.4538374,Centre,Orleans Montessori Children's House Inc.,Orleans Montessori Children's House Inc.,0,0,40,0,0,0,0,40,1212 Arbuste  Avenue,Cumberland, Ontario, K4C 1C2,,
45.4333585,-75.5305156,Centre,Orleans Montessori Pre-school & Childcare Inc.,Orleans Montessori Preschool and Child Care,0,10,11,0,0,0,0,21,2820 Navan  Road,Orléans, Ontario, K1C 7G4,,
45.1478441,-75.6013987,Centre,Osgoode Co-operative Nursery School,Osgoode Cooperative Nursery School,0,0,16,0,0,0,0,16,5660 Osgoode Main Street,Osgoode, Ontario, K0A 2W0,,
45.4346305,-75.6417713,Centre,Ottawa Carleton District School Board,Ottawa Carleton District School Board (Rideau High School Infant Toddler Preschool Program),10,15,24,0,0,0,0,49,815 St.Laurent  Boulevard,Ottawa, Ontario, K1K 3A7,,
45.3624087,-75.7791698,Centre,Ottawa Carleton District School Board,Ottawa Carleton District School Board (Woodroffe High School Infant Toddler Preschool Program),16,15,16,0,0,0,0,47,2410 Georgina  Drive,Ottawa, Ontario, K2B 7M8,,
,,Centre,Ottawa Catholic Child Care Corporation,Baywood School Age Program,0,0,0,78,120,0,0,198,4 Baywood  Street,Stittsville, Ontario, K2S 1A5,,
,,Centre,Ottawa Catholic Child Care Corporation,Beaconwood School Age Program,0,0,0,52,60,0,0,112,635 Laverendrye Drive,Gloucester, Ontario, K1J 7C2,,
45.2692233,-75.7328843,Centre,Ottawa Catholic Child Care Corporation,Chapman Mills Early Learning Centre,0,0,40,104,105,0,0,249,500 B Chapman Mills Drive,Nepean, Ontario, K2G 3R4,,
45.2848229,-75.7086045,Centre,Ottawa Catholic Child Care Corporation,Crestway Early Learning Centre,0,0,40,104,150,0,0,294,201 Crestway Drive,Nepean, Ontario, K2G 6Z3,,
45.4443256,-75.5993857,Centre,Ottawa Catholic Child Care Corporation,Elmridge School Age Program,0,0,0,52,60,0,0,112,1923 Elmridge  Drive,Gloucester, Ontario, K1J 8G7,,
45.2809584,-75.837711,Centre,Ottawa Catholic Child Care Corporation,Emerald Meadows School Age Program,0,0,0,78,120,0,0,198,500 B Stonehaven  Drive,Kanata, Ontario, K2M 2V6,,
45.469376,-75.474557,Centre,Ottawa Catholic Child Care Corporation,Gardenway School Age Program,0,0,0,78,111,0,0,189,2133B Gardenway Drive,Ottawa, Ontario, K4A 3M2,,
45.3741106,-75.6440027,Centre,Ottawa Catholic Child Care Corporation,Heron Gate Early Learning Centre,0,0,24,52,75,0,0,151,1620 -B Heatherington Road,Ottawa, Ontario, K1V 9P5,,
45.4077666,-75.6772102,Centre,Ottawa Catholic Child Care Corporation,Holy Spirit School Age Program,0,0,0,52,60,0,0,112,1383 Main  Street,Stittsville, Ontario, K2S 1A8,,
45.2861833,-75.9308314,Centre,Ottawa Catholic Child Care Corporation,Jackson Trails Early Learning Centre,0,0,40,130,135,0,0,305,1145 B Stittsville Main Street,Stittsville, Ontario, K2S 1B6,,
45.3083196,-75.9014358,Centre,Ottawa Catholic Child Care Corporation,Katimavik Early Learning Centre,0,0,40,0,0,0,0,40,180 Katimavik  Road,Kanata, Ontario, K2L 4A7,,
45.404287,-75.748072,Centre,Ottawa Catholic Child Care Corporation,Keyworth Early Learning Centre,0,15,48,104,75,0,0,242,130B Keyworth  Avenue,Ottawa, Ontario, K1Y 0E6,,
45.3464597,-75.8051302,Centre,Ottawa Catholic Child Care Corporation,Lynwood Early Learning Centre,0,0,24,52,75,0,0,151,3877-B Richmond  Road,Nepean, Ontario, K2H 5C1,,
45.3368524,-75.941361,Centre,Ottawa Catholic Child Care Corporation,Marchwood Early Learning Centre,0,15,24,78,105,0,0,222,785 Goulbourn Forced Road,Kanata, Ontario, K2K 0K2,,
45.291164,-75.735381,Centre,Ottawa Catholic Child Care Corporation,Mountshannon Early Learning Centre,0,15,24,78,120,0,0,237,60B Mountshannon Drive,Nepean, Ontario, K2J 4B8,,
45.4538288,-75.4645143,Centre,Ottawa Catholic Child Care Corporation,Portobello Early Learning Centre,0,0,24,124,90,0,0,238,2000B Portobello  Boulevard,Ottawa, Ontario, K4A 4M9,,
45.2882425,-75.6730599,Centre,Ottawa Catholic Child Care Corporation,Shoreline Early Learning Centre,0,0,38,78,135,0,0,251,4330B Spratt  Road,Ottawa, Ontario, K1V 2A7,,
45.478761,-75.48048,Centre,Ottawa Catholic Child Care Corporation,St. Francis of Assisi Early Learning Centre,0,0,32,78,90,0,0,200,795B Watters  Road,Orléans, Ontario, K4A 2T2,,
45.2809584,-75.837711,Centre,Ottawa Catholic Child Care Corporation,Stonehaven Early Learning Centre,0,0,40,156,150,0,0,346,50B Stonehaven  Drive,Kanata, Ontario, K2M 2K6,,
45.2875435,-75.7327141,Centre,Ottawa Catholic Child Care Corporation,Strandherd School Age Program,0,0,0,78,150,0,0,228,333 B Beatrice  Drive,Nepean, Ontario, K2J 4W1,,
45.389517,-75.7336237,Centre,Ottawa Children's Montessori Center Inc.,Ottawa Children's Montessori,10,30,40,0,0,0,0,80,630 Island Park  Drive,Ottawa, Ontario, K1Y 0B7,,
45.4077775,-75.6528132,Centre,Ottawa Montessori School/Ecole Montessori d'Ottawa,Ottawa Montessori School,0,30,120,0,0,0,0,150,335 Lindsay  Street,Ottawa, Ontario, K1G 0L6,,
45.2652071,-75.7734865,Centre,Ottawa Torah Centre,OTC Early Learning Centre,0,10,10,0,0,0,0,20,111 Lamplighters Drive,Ottawa, Ontario, K2J 0C2,,
45.396826,-75.7261182,Centre,Parkdale Montessori School,Parkdale Montessori School,0,30,44,0,0,0,0,74,555 Parkdale  Avenue,Ottawa, Ontario, K1Y 1H9,,
45.3601257,-75.8009165,Centre,Pinecrest-Queensway Community Health Centre,Pinecrest Queensway Headstart Nursery School,0,0,40,0,0,0,0,40,2860 Ahearn  Avenue,Ottawa, Ontario, K2B 6G2,,
45.364912,-75.7500139,Centre,Playtime Daycare Centre,Playtime Daycare Centre,10,42,72,0,13,0,0,137,1160 Maitland  Avenue,Ottawa, Ontario, K2C 2C2,,
,,Centre,PROCARE Family Centre Inc.,PROCARE Family Centre Inc.,0,14,21,0,10,0,0,45,78 Holland Avenue West,Ottawa  , Ontario, K1Y 0X6,,
45.3760717,-75.7711939,Centre,Rainbow Montessori School Inc.,Rainbow Montessori School Inc,9,10,15,0,0,0,0,34,2120 Prince Charles  Road,Ottawa, Ontario, K2A 3L3,,
45.3671214,-75.7907182,Centre,REKSAP Centres for Early Learning,REKSAP Centres for Early Learning (Regina),0,0,32,52,60,0,0,144,2599 Regina  Street,Ottawa, Ontario, K2B 6X4,,
45.3574256,-75.7832774,Centre,REKSAP Centres for Early Learning,REKSAP Centres for Early Learning (Severn),0,0,16,52,60,0,0,128,2553 Severn  Avenue,Ottawa, Ontario, K2B 7V8,,
45.1911532,-75.834379,Centre,Richmond Cooperative Nursery School Inc.,Richmond Cooperative Nursery School,0,0,24,0,0,0,0,24,3529 McBean  Street,Richmond, Ontario, K0A 2Z0,,
45.4740117,-75.4934434,Centre,River Parkway Children's Centre,River Heights Children's Centre,0,15,24,0,0,0,0,39,1515 Tenth Line Road,Orléans, Ontario, K1E 3E8,,
45.38121,-75.772461,Centre,River Parkway Children's Centre,River Parkway Children's Centre,0,25,32,0,15,0,0,72,40 Cleary  Avenue,Ottawa, Ontario, K2A 4A1,,
45.4116594,-75.6800164,Centre,Riverside Montessori Pre-School Inc.,Riverside Montessori Pre-School,0,15,24,0,0,0,0,39,88 Main  Street,Ottawa, Ontario, K1S 1C2,,
45.359104,-75.687915,Centre,Riverside Park Nursery School,Riverside Park Nursery School,0,0,50,0,0,0,0,50,3191 Riverside  Drive,Ottawa, Ontario, K1V 8N8,,
45.450667,-75.677796,Centre,Rockcliffe Child Care Centre Inc.,Rockcliffe Child Care Centre,0,15,24,0,30,0,0,69,340 Buena Vista  Road,Rockcliffe, Ontario, K1M 1C1,,
45.2366785,-75.471776,Centre,Rural Family Connections Inc.,Metcalfe Co-operative Nursery School,0,0,24,0,0,0,0,24,8243 Victoria  Street,Metcalfe, Ontario, K0A 2P0,,
45.4271517,-75.6808134,Centre,Sandy Hill Child Care Centre - Centre d'enfants côte de sable,Sandy Hill Child Care Centre - Centre d'enfants côte de sable,0,20,24,0,0,0,0,44,300 Wilbrod Street,Ottawa, Ontario, K1N 6M1,,
45.3953087,-75.6140909,Centre,Service à l'enfance Aladin Childcare Services Inc.,Service à l'enfance Aladin Childcare Services,0,15,24,46,60,0,0,145,2240 Russell   Road,Ottawa, Ontario, K1G 1B3,,
45.3927973,-75.6459832,Centre,Service à l'enfance Aladin Childcare Services Inc.,Service à l'enfance Aladin Childcare Services - Pleasant Park,0,0,0,78,120,0,0,198,564 Pleasant Park Road,Ottawa, Ontario, K1H 5N1,,
45.392331,-75.6205673,Centre,Service à l'enfance Aladin Childcare Services Inc.,Service à l'enfance Aladin Childcare Services-Hawthorne,0,0,0,26,30,0,0,56,2158 St.Laurent Boulevard,Ottawa, Ontario, K1G 1H7,,
45.4325383,-75.6815439,Centre,Service à l'enfance Aladin Childcare Services Inc.,"Service à l'enfance Aladin, site Sainte-Anne",0,15,24,39,30,20,0,128,235 Beausoleil Promenade,Ottawa, Ontario, K1N 8X8,French,
45.4475273,-75.4843056,Centre,Services à l’enfance et à la famille La Coccinelle,La Coccinelle,0,15,24,91,150,40,0,320,665 promenade des Aubépines,Orléans, Ontario, K4A 0Z3,French,
45.4477888,-75.4737236,Centre,Services à l’enfance et à la famille La Coccinelle,La Coccinelle Alain Fortin,10,15,40,182,225,60,0,532,676 Lakeridge Promenade,Ottawa, Ontario, K1C 2X8,French,
45.4116594,-75.6800164,Centre,Services à l’enfance et à la famille La Coccinelle,La Coccinelle au coeur d'Ottawa,0,0,16,52,90,0,0,158,88 Main,Ottawa, Ontario, K1S 1C2,French,
45.4727159,-75.5080431,Centre,Services à l’enfance et à la famille La Coccinelle,La Coccinelle École la Source,0,0,0,78,90,40,0,208,1445 Duford  Promenade,Ottawa, Ontario, K1E 1E8,French,
45.4603732,-75.5981082,Centre,Services à l’enfance et à la famille La Coccinelle,La Coccinelle La Vérendrye,0,15,24,104,150,20,0,313,614 Eastvale  Promenade,Gloucester, Ontario, K1J 6Z6,French,
45.3735528,-75.6719053,Centre,Services à l’enfance et à la famille La Coccinelle,La Coccinelle Lamoureux,0,0,16,78,75,20,0,189,2540 av. Kaladar,Ottawa, Ontario, K1V 8C5,French,
45.4718405,-75.5098261,Centre,Services à l’enfance et à la famille La Coccinelle,La Coccinelle Reine des Bois,0,0,24,52,90,20,0,186,1450 Duford  Promenade,Ottawa, Ontario, K1E 1E6,French,
,,Centre,Services à l’enfance et à la famille La Coccinelle,"La Coccinelle, Arc-en-Ciel",0,15,24,77,195,60,0,371,1830 Portobello Promenade,Cumberland, Ontario, K4A 3T6,French,
45.468021,-75.4576091,Centre,Services à l’enfance et à la famille La Coccinelle,"La Coccinelle, Béatrice-Desloges",0,0,24,0,0,0,0,24,1999 Provence Avenue,Orléans, Ontario, K4A 3Y6,French,
45.4651776,-75.4610068,Centre,Services à l’enfance et à la famille La Coccinelle,"La Coccinelle, De La Découverte",0,10,16,104,240,60,0,430,866 Scala  Avenue,Ottawa, Ontario, K4A 3T6,French,
45.4597476,-75.460676,Centre,Services à l’enfance et à la famille La Coccinelle,"La Coccinelle, Des Sentiers",10,10,16,78,150,60,0,324,2159 Nantes Rue,Orléans, Ontario, K4A 4C4,French,
45.4374859,-75.5303077,Centre,Services à l’enfance et à la famille La Coccinelle,"La Coccinelle, Le Prélude",0,15,32,0,150,60,0,257,6025 Longleaf,Ottawa, Ontario, K1W 1G3,French,
45.3559641,-75.3541543,Centre,Services à l’enfance et à la famille La Coccinelle,"La Coccinelle, Saint-Guillaume",0,0,16,39,45,20,0,120,5750 Buckland  Chemin,Vars, Ontario, K0A 3H0,French,
45.365711,-75.7276037,Centre,Sessila Academy Inc./ Académie Séssila Inc.,Sessila Academy Inc./ Académie Séssila Inc.,10,30,23,0,0,0,0,63,1026  Baseline  Road,Ottawa, Ontario, K2C 0A6,,
45.4059975,-75.7086932,Centre,Sisters of Addolorato Servants of Mary,St. Anthony's Children's Centre,0,10,24,0,0,0,0,34,414 Booth  Street,Ottawa, Ontario, K1R 7K7,,
45.4035638,-75.6472254,Centre,Smyth Road Campus Child Care Centre de garde d'enfants Campus du chemin Smyth,Garderie Oasis Child Care Centre,10,15,40,0,0,0,0,65,507 Smyth  Chemin,Ottawa, Ontario, K1H 8M2,,
45.4106212,-75.7090998,Centre,SOMERSET WEST COMMUNITY HEALTH CENTRE,Nanny Goat Hill Nursery School,0,10,16,0,0,0,0,26,755 Somerset  Street,Ottawa, Ontario, K1R 6R1,,
45.399691,-75.7280782,Centre,SOMERSET WEST COMMUNITY HEALTH CENTRE,Queensway Preschool,0,0,24,0,0,0,0,24,429 Parkdale  Avenue,Ottawa, Ontario, K1Y 1H3,,
45.4528793,-75.4837339,Centre,Sszum Management Inc.,Tiny Hoppers Daycare,10,15,24,0,0,0,0,49,2272 Tenth Line Road,Orleans, Ontario, K4A 0G4,,
,,Centre,St. Cyril and Methodius Russian Orthodox Education Organization in Ottawa Inc.,Rodnichok Daycare,0,10,13,10,0,0,0,33,1311 McWatters Street,Ottawa, Ontario, K2C 3E7,,
45.329623,-75.7817763,Centre,St. Mary's Daycare,St. Mary's Daycare,0,10,24,18,30,0,0,82,2 Canfield  Road,Ottawa, Ontario, K2H 5T1,,
45.384123,-75.6613536,Centre,St. Thomas the Apostle Church,St. Thomas the Apostle Nursery School,0,15,41,14,30,0,0,100,2345 Alta Vista  Drive,Ottawa, Ontario, K1H 7M6,,
45.3251102,-75.7811991,Centre,Stepping Up Daycare Inc.,Stepping Up Daycare Inc.,6,20,16,26,0,0,0,68,63 Glencoe Street,Nepean, Ontario, K2H 8S5,,
45.4083607,-75.6775346,Centre,Stittsville Childcare Centre,Stittsville Childcare Centre,0,15,24,22,12,0,0,73,1488 Main  Street,Stittsville, Ontario, K2S 1B2,,
45.261962,-75.933122,Centre,Stittsville Co-op Nursery School,Stittsville Co-op Nursery School,0,15,24,0,0,0,0,39,27 Hobin  Street,Stittsville, Ontario, K2S 1G8,,
45.2695155,-75.9410495,Centre,Stittsville's Imagination Station Preschool & Kinder Inc.,Stittsville Imagination Station Preschool & Kinder - Carp Road,0,15,24,0,0,0,0,39,1115 Carp  Road,Stittsville, Ontario, K2S 1B9,,
45.2781705,-75.9206288,Centre,Stittsville's Imagination Station Preschool & Kinder Inc.,Stittsville's Imagination Station Preschool & Kinder,0,0,24,0,0,0,0,24,5891 Hazeldean  Road,Stittsville, Ontario, K2S 1B9,,
45.269632,-75.94134,Centre,Stittsville's Imagination Station Preschool & Kinder Inc.,Stittsville's Imagination Station Preschool & Kinder Inc Carp 2,10,15,0,0,0,0,0,25,1107 Carp  Road,Stittsville, Ontario, K2S 1B9,,
45.4435135,-75.6072726,Centre,Sugar & S.P.I.C.E. Quality Care Ltd.,Sugar & S.P.I.C.E. Quality Childcare,0,15,24,0,0,0,0,39,42 Sumac  Street,Ottawa, Ontario, K1J 6P7,,
45.375883,-75.751804,Centre,Synagogue and Jewish Community Centre of Ottawa,Ganon Preschool,0,27,32,20,0,0,0,79,21 Nadolny Sachs  Private,Ottawa, Ontario, K2A 1R9,,
45.4260185,-75.6752709,Centre,The Bettye Hyde Co-operative Nursery School,Bettye Hyde Cooperative Early Learning Centre,0,15,24,0,0,0,0,39,43  Blackburn  Avenue,Ottawa, Ontario, K1N 8A4,,
45.4021215,-75.6914914,Centre,The Glebe Neighbourhood Activities Group,Kinder Quest-4-Fun Afterschool Program for JK - SK,0,0,0,26,0,0,0,26,175 Third Avenue,Ottawa  , Ontario, K1S 2K2,,
,,Centre,The Little School Daycare-Orleans,The Little School Daycare - Orleans,10,35,40,10,0,0,0,95,850 Taylor Creek Boulevard,Orléans, Ontario, K1C 1T1,,
45.2970207,-75.7332488,Centre,The Play House Learning Centre Inc.,Kids & Company - Barrhaven,0,30,64,10,0,0,0,104,3350 Fallowfield  Road,Nepean, Ontario, K2J 5L1,,
45.297298,-75.8877313,Centre,THE PLAYSPACE INC.,The Playspace at Hazeldean Village,0,29,24,0,0,0,0,53,474 Hazeldean  Road,Kanata, Ontario, K2L 4E5,,
45.2870103,-75.6719639,Centre,Tiny Hoppers Corp.,Tiny Hoppers Corp.,6,30,48,0,0,0,0,84,4456 Limebank Road,Ottawa, Ontario, K1V 2N8,,
45.3756244,-75.6674954,Centre,Tracy Hanstein,Kinderville,10,30,40,18,0,0,0,98,1644 Bank  Street,Ottawa, Ontario, K1V 7Y6,,
45.4256953,-75.6579569,Centre,VINCI School,VINCI School,0,30,44,0,0,0,0,74,149 King George Street,Ottawa, Ontario, K1K 1V2,,
45.3290385,-75.7806292,Centre,Weefolk Playhouse Inc.,Weefolk Playhouse,18,15,29,0,0,0,0,62,171 Greenbank  Road,Nepean, Ontario, K2H 5V6,,
45.4151586,-76.1466117,Centre,WEST CARLETON KIDS' KORNER INC.,West Carleton Kids' Korner Inc.,0,15,40,16,44,0,0,115,5670 Carp  Road,Kinburn, Ontario, K0A 2H0,,
45.3906153,-75.7558386,Centre,Westboro Montessori School Inc.,Westboro Montessori Children's House,0,10,21,0,0,0,0,31,387 Danforth  Avenue,Ottawa, Ontario, K2A 0E1,,
45.3930958,-75.7523094,Centre,Westboro Montessori School Inc.,Westboro Montessori School,0,25,24,0,0,0,0,49,307 Richmond  Road,Ottawa, Ontario, K1Z 6X3,,
45.3886705,-75.755752,Centre,Westboro Village Co-operative Preschool Inc.,Westboro Village Co-operative Preschool,0,14,16,0,0,0,0,30,470 Roosevelt  Avenue,Ottawa, Ontario, K2A 1Z6,,
45.3652924,-75.7695914,Centre,Whitehaven Kindergarten School Age Centre Inc.,Whitehaven Kindergarten School Age Centre Inc.,0,0,24,20,45,0,0,89,919 Woodroffe Avenue,Ottawa, Ontario, K2A 3G9,,
45.4582399,-75.4667737,Centre,YM/YWCA Christian Association,Avalon YMCA-YWCA Child Care,0,0,32,80,120,0,0,232,2080 Portobello Boulevard,Ottawa, Ontario, K4A 0K5,,
45.4813711,-75.5091813,Centre,YM/YWCA Christian Association,Ruddy Family Y Child Care Centre,0,15,32,0,0,0,0,47,265 Centrum  Boulevard,Ottawa, Ontario, K1E 3X7,,
,,Centre,YM/YWCA Christian Association,Taggart Family Y Child Care Centre,0,15,48,0,0,0,0,63,180 Argyle  Street,Ottawa, Ontario, K2P 1B7,,
,,Centre,Zida Group Inc.,Zida Academy,0,0,54,0,0,0,0,54,1 Henry Goulburn Way,Stittsville, Ontario, K2S 1N9,,
