Latitude,Longitude,OBJECTID,PARK_ID,FACILITYID,Park Name,Park Address,Baby Swing,Picnic Table,Zip Line,Water Play,Water Fountain,Fencing,Accessible swing,Base (sand / rubber / wood chips),Accessible,Note / Special Feature
45.320302,-75.892515,13,112,31154,Billy Bishop Park,1 Bishops Mills Way, ,,,,, ,,,No,
45.3859678,-75.7300339,751,467,56867,Harrold Place Park,1 Harrold Place,Yes,,,,,,,,,
45.3983025,-75.6940595,338,373,31478,Capital Park,10 Ella Street,Yes,,,,, ,,,No,
45.3426455,-75.7414975,1604,754,31858,Oakview Park,10 Oakview Avenue,Yes,,,,, ,,,No,
45.2609516,-75.9258508,32,1160,32265,Alexander Grove Park,10 Warner Colpitts Lane,Yes,,,,,Yes,,,No,
45.282499,-75.8735396,920,2469,34658,Kristina Kiss Park,100 Akerson Road,Yes,,,,,No,,,No,
45.4502307,-75.6563877,1329,132,31175,Manor Park,100 Braemar Street,Yes,,,,,Yes,,,No,
45.3858667,-75.6889059,120,134,31180,Brewer Park,100 Brewer Way,Yes,,,,, ,,,No,
45.2942511,-75.9015989,703,1157,32264,Walter Baker Park,100 Charlie Rogers Place,Yes,,,,, ,,,No,
45.4696753,-76.2053169,23,2458,32248,Egbert Reitsma Parkette,100 Clifford Campbell Street,Yes,,,,, ,,,No,
45.2778413,-75.7650472,1368,383,31498,Mowat Farm Park,100 Fable Street,Yes,,,,, ,,,No,
45.2773363,-75.7114998,956,1652,32481,Grovehurst Park,100 Grovehurst Drive, ,,,,,No,,,No,
45.3243811,-75.5846358,683,2625,57551,Bert Dowler Park,100 Highgarden Terrace,,,,,,,,,,
45.3533946,-75.6954344,1643,609,31733,Geoff Wightman Park,100 Kamloops Avenue,Yes,,,,, ,,,Yes,
45.4667279,-75.448032,838,1333,32838,Cumberland Millennium Sports Park,100 Millennium Boulevard,Yes,,,,, ,,,No,
45.361906,-75.641852,348,1645,32459,Recreational Trail,100 Tapiola Crescent, ,,,,,No,,,No,
45.3288833,-75.9008171,633,1700,32791,Beaverbrook Pool Park,1002 Beaverbrook Road,Yes,,,,,Yes,,,No,
45.4031857,-75.7235153,1494,1168,32278,Hintonburg Park,101 Duhamel Street,Yes,,,,, ,,,No,
45.2781992,-75.8857416,265,2484,35135,Blackstone Park,101 Tapadero Avenue,Yes,,,,,,,,Yes,
45.2658775,-75.7549318,478,2395,34628,Barrhaven Mews Park,1010 Andora Avenue,,,,,,,,,No,
45.3668725,-75.6762606,728,466,31594,Pauline Vanier Park,1015 Harkness Avenue,Yes,,,,, ,,,No,
45.2764904,-75.9327636,426,1741,34646,Pioneer Plains Park,1018 Stittsville Main Street,,,,,,,,,No,
45.3580077,-75.9284628,714,1746,36241,Brookshire Park,1027 Klondike Road,,,,,,,,,Yes,
45.367042,-75.635242,1077,1721,32829,Ladybug Park,103 Inverkip Avenue,Yes,,,,, ,,,No,
45.3155715,-75.8239597,38,36,31054,Arbeatha Park,105 Arbeatha Street,Yes,,,,, ,,,No,
45.4253172,-75.5192351,919,2468,56753,Fountainhead Park,105 Felicity Crescent,Yes,,,,,Yes,,,Yes,
45.2739707,-75.7279971,188,2481,35439,Panda Park,105 Southam Way,,,,,,,,,Yes,
45.4250364,-75.6345526,7,757,31860,Ogilvie North Park,1059 Ogilvie Road,Yes,,,,, ,,,No,
45.4310674,-75.6353723,1152,300,31362,Cummings Park,1060 Cummings Avenue,Yes,,,,, ,,,No,
45.4341886,-75.670674,782,922,35467,Riverside Memorial Park,1063 North River Road,,,,,,,,,Yes,
45.3517451,-75.7189468,1544,234,31293,General Burns Park,107 Chesterton Drive,Yes,,,,, ,,,No,
45.4718779,-75.5518464,399,972,32078,Father Richard Ward Park,1073 Chablis Park, ,,,,, ,,,No,
45.3993526,-75.711495,360,92,31118,Ev Tremblay Park,108 Beech Street,Yes,,,,, ,,,No,
45.3505072,-76.0375714,1311,541,31075,Huntley Community Centre,108 Juanita Avenue,Yes,,,,,Yes,,,No,
45.3352482,-76.0241926,405,1630,32519,Feed Mill Creek Park,1080 Carp Road,Yes,,,,,No,,,No,
45.2473557, -75.4255634,327,1216,32322,Edwards Park,1081 York's Corners Rd,Yes,,,,, ,,,No,
45.4873913,-75.5216357,820,581,31703,Roy G. Hobbs Community Centre and Park,109 Larch Crescent, ,,,,,Yes,,,No,
45.3449801,-75.79528,1462,728,31825,Morrison Park,1095 Morrison Drive,Yes,,,,, ,,,No,
45.3505384,-75.7958632,1400,459,31589,Ruth Wildgen Park,1099 Grenon Avenue,Yes,,,,, ,,,No,
45.4596377,-75.6137729,319,271,31348,Combermere Park,11 Combermere Lane,Yes,,,,, ,,,No,
45.2641759,-75.938543,431,1539,32379,Crantham Park,11 Crantham Crescent,Yes,,,,, ,,,No,
45.2762074,-75.9193599,1481,322,31395,Amberway Park,11 Denham Way,Yes,,,,, ,,,No,
45.4455679,-75.6512049,1477,346,31436,Cardinal Glen Park,11 Dunbarton Court, ,,,,, ,,,Yes,
45.3140604,-75.9191003,288,483,31616,Star Park,11 Highmont Court, ,,,,, ,,,No,
45.3510314,-75.9241089,908,689,32602,McKinley Park,11 McKinley Drive,Yes,,,,,No,,,No,
45.3487755,-75.7218089,1313,885,32001,Redpine Park,11 Redpine Drive,Yes,,,,, ,,,No,
45.3364988,-75.6066847,647,484,31618,Kemp Park,11 Robert Kemp Street,Yes,,,,, ,,,No,
45.2831572,-75.7363445,534,1660,32495,Totteridge Park,11 Totteridge Avenue,Yes,,,,,No,,,No,
45.2709215,-75.7334554,1331,2508,35493,Mancini Park,110 Mancini Way,Yes,,,,,,,,Yes,
45.514576,-75.4034726,1669,348,31443,Wilfred Murray Park / R.J. Kennedy Community Hall and Arena,1115 Dunning Road,Yes,,,,, ,,,No,
45.4241102,-75.6521889,1015,2618,53447,Lola Park,1122 Lola Street,,,,,,,,,Yes,
45.4264705,-75.4857728,1243,1330,32363,Isaie Savage Park,114 Saphir Avenue,Yes,,,,, ,,,No,
45.3672136,-75.745723,592,456,31586,Greenlawn Park,1145 Greenlawn Crescent,Yes,,,,, ,,,No,
45.3919735,-75.7541456,763,895,58333,McEwen Park,1145 Richmond Road,,,,,,,,,,
45.4889308,-75.4762713,638,2485,35473,Royal Ridge Park,115 Challenge Crescent,,,,,,,,,Yes,
45.4207255,-76.0231633,665,1102,32218,Dunrobin Community Centre,1151 Thomas A. Dolan Parkway,Yes,,,,, ,,,No,
45.4735643,-75.5441806,1384,1050,32161,Jeanne D'Arc Park,1155 St. Moritz Court,Yes,,,,, ,,,No,
45.416776,-75.6286954,1074,550,31676,Marchand Park,1157 Kenaston Street,Yes,,,,, ,,,No,
45.369672,-75.6189712,1379,120,31159,Elizabeth Manley Park,1161 Blohm Drive,Yes,,,,, ,,,No,
45.4248131,-76.259933,1294,310,31369,Galetta Community Centre,119 Darwin Street,Yes,,,,,Yes,,,No,
45.3618508,-75.7188102,1296,320,31388,Steve MacLean Park,1190 Deer Park Road,Yes,,,,, ,,,No,
45.3769139,-75.9866095,791,2352,57951,Louis Turner Park,1190 Old Second Line Road,,,,,,,,,Yes,
45.4283642,-75.6311762,1522,758,31862,Ken Steele Park,1195 Ogilvie Road, ,,,,, ,,,No,
45.2750418,-75.705293,1529,1653,32483,Drumlins Park,12 Drumlins Avenue, ,,,,,No,,,No,
45.2567547,-75.9147904,1576,877,31989,Ralph Street Park,12 Ralphpark Street,Yes,,,,, ,,,No,
45.4384957,-75.66866,1404,2425,36220,St. Ambroise Park,120 Landry Street,,,,,,,,,No,
45.2394998,-75.7321887,371,2507,52535,Guinness Park,120 Ramsgrange Street,Yes,,,,,No,,,Yes,
45.3934821,-75.6685,246,1720,32820,John Murphy Park,120 Rodney Crescent,Yes,,,,, ,,,Yes,
45.4243217,-75.6134858,152,213,31260,Cedarcroft Park,1200 Cedarcroft Crescent,Yes,,,,, ,,,No,
45.3779959,-75.7246229,1482,1113,32228,Meadowvale Terrace Park,1205 Trenton Avenue,Yes,,,,, ,,,No,
45.3754613,-75.6208314,695,1718,32809,Southwood Park,121 Grandpark Circle,Yes,,,,, ,,,No,
45.490676,-75.494999,418,2479,35423,Joseph Laflamme Park,121 Prestige Circle,Yes,,,,,Yes,,,Yes,
45.4322874,-75.6273257,1343,674,31779,Whiterock Park,1245 Matheson Road,Yes,,,,, ,,,No,
45.2639458,-75.7604915,936,2497,49177,Harthill Way Linear Park,125 Harthill Way,,,,,,,,,Yes,
45.2869026,-75.7300249,161,2495,53631,Watershield Park,125 Watershield Ridge,Yes,,,,,,,,Yes,
45.3648945,-75.6567934,1093,596,31728,Ledbury Park and Pavilion,1250 Ledbury Avenue,Yes,,,,, ,,,No,
45.3468931,-75.7839932,1149,1022,32142,Kilreen Park,1250 Southwood Drive,Yes,,,,, ,,,No,
45.350249,-75.9404919,535,1615,32527,W.C. Bowes Park,1251 Halton Terrace,Yes,,,,,No,,,No,
45.4757994,-75.5241586,1226,1053,32168,Pierre Rocque Park,1257 Joseph-Drouin Avenue,Yes,,,,, ,,,No,
45.3549577,-75.9197478,871,1000,32530,Ravenscroft Park,126 Shirley's Brook Drive,Yes,,,,,No,,,No,
45.3765,-75.663252,767,919,56739,Edgehill Park,1264 Ridgemont Avenue,Yes,,,,,,,,,
45.3539546,-75.7661457,1579,3,31005,Kenson Park,1265 Adirondack Drive,Yes,,,,, ,,,No,
45.3596019,-75.7536108,606,7,31010,Agincourt Park,1269 Albany Drive,Yes,,,,, ,,,No,
45.3600512,-75.6470578,90,808,31926,R. George Pushman Park,1270 Pebble Road,Yes,,,,, ,,,No,
45.4075112,-75.7221385,477,78,31103,Bayview Friendship Park,128 Bayview Station Road, ,,,,, ,,,Yes,
45.3766388,-75.9945451,5,1613,32846,Trevor Vance Park,129 Goodman Drive,Yes,,,,, ,,,No,
45.2611524,-75.9350888,1541,71,31092,Sugar Creek Park,13 Basford Crescent,Yes,,,,, ,,,No,
45.1997461,-75.8388488,999,1668,56813,Grovewoods Park,13 Grovewood Lane,Yes,,,,,,,,No,
45.2725899,-75.9048522,1506,1625,32444,Slate Park,13 Slate Street,Yes,,,,,No,,,No,
45.3282069,-75.9222535,715,1801,34621,Walden Park,130 Walden Drive,,,,,,,,,No,
45.3832847,-75.6664373,626,880,31993,Alta Vista Park,1309 Randall Avenue,Yes,,,,, ,,,Yes,
45.2544103,-75.5886308,1438,1103,32221,Tintern Park,1314 Tintern Drive,No,,,,, ,,,No,
45.4290481,-75.6228944,1150,759,34647,Palmerston Park,1326 Ogilvie Road,Yes,,,,, ,,,No,
45.369663,-75.6313626,30,1665,32510,Firefly Park,133 Duntroon Circle,Yes,,,,,No,,,No,
45.4174251,-75.6453744,149,48,31068,Cecil Morrison Park,1332 Avenue N,Yes,,,,, ,,,No,
45.3886107,-75.6679274,183,95,31122,Applewood Park,134 Begonia Avenue,Yes,,,,, ,,,Yes,
45.3336187,-75.7743396,725,449,31576,Craig Henry Park,135 Craig Henry Drive,Yes,,,,,No,,,No,
45.2750923,-75.757455,334,997,32106,Burnett Park,135 Sherway Drive,Yes,,,,, ,,,No,
45.3491125,-75.9380122,1186,80,31108,Klondike Road Park,1365 Halton Terrace,Yes,,,,, ,,,No,
45.4866734,-75.4812587,910,1604,32435,Caserta Park,1369 Caserta Place,Yes,,,,,No,,,No,
45.2790124,-75.717227,733,1183,32296,Chapman Mills Park,139 Windhurst Drive,Yes,,,,,Yes,,,No,
45.2797127,-75.9111204,216,418,34654,Fringewood Park and Community Centre,14 Fringewood Drive,Yes,,,,, ,,,No,
45.2831831,-75.6956337,811,961,32432,Honey Gables Park,14 Ryeburn Drive,Yes,,,,, ,,,No,
45.404329,-75.7449789,1515,170,31222,Champlain Park,140 Carleton Avenue,Yes,,,,, ,,,No,
45.2855069,-75.9293575,1044,2521,35569,Maestro Park,140 Maestro Avenue,Yes,,,,,,,,Yes,
45.3698135,-75.7128158,1180,613,35483,Lexington Park,1404 Lexington Street,Yes,,,,,,,,Yes,
45.2909363,-75.8945504,1289,561,31685,Nairn Park,141 Kincardine Drive, ,,,,, ,,,No,
45.4624377,-75.5365157,4,476,32834,Racette Park,1410 Henri Lauzon Street,Yes,,,,, ,,,No,
45.4251663,-76.0206227,1174,1525,32397,Porcupine Park,142 Porcupine Trail,Yes,,,,, ,,,No,
45.4193073,-75.6079441,622,695,31801,Cyrville Park,1420 Meadowbrook Road,Yes,,,,, ,,,No,
45.2936278,-75.6956947,974,733,31837,Henry Park,1420 Mulligan Street,Yes,,,,, ,,,No,
45.4373121,-75.6215857,133,675,31781,Carson Grove Park,1423 Matheson Road,Yes,,,,,No,,,No,
45.4724333,-75.5130244,1473,341,31426,Ravine Park (Cumberland),1424 Duford Drive, ,,,,, ,,,No,
45.3792536,-75.6554856,452,1823,34625,Heron-Walkley Park,1430 Heron Road,,,,,,Yes,,,No,
45.3792536,-75.6554856,453,1823,34626,Heron-Walkley Park,1430 Heron Road,Yes,,,,,Yes,,,No,
45.4245299,-75.6007661,185,89,31113,Appleton Park,1437 Appleton Drive,Yes,,,,, ,,,No,
45.2613517,-75.5568141,933,693,54157,Andy Shields Park,1448 Meadow Drive,,,,,,,,,Yes,
45.4336512,-75.695716,310,208,31253,Bingham Park,145 Cathcart Street,Yes,,,,, ,,,No,
45.4209769,-75.6083526,766,918,32548,Vanessa Gilles Park,1465 Ridgebrook Drive, ,,,,, ,,,No,
45.317433,-75.891681,1038,1698,32789,Robert Gray Park,147 Gray Crescent, ,,,,, ,,,No,
45.3789288,-75.6543613,459,481,31614,Heron Road Community Centre,1480 Heron Road, ,,,,,Yes,,,No,
45.469966,-75.508097,1350,343,32591,Queenswood Heights Centennial Park and Community Centre,1485 Duford Drive,Yes,,,,,Yes,,,No,
45.4219669,-75.6116769,1607,696,31808,Meadowbrook Park (Gloucester),1485 Meadowbrook Road,Yes,,,,, ,,,No,
45.1588687,-75.648096,57,2477,34657,Cobe Parkette,1490 Cobe Terrace,Yes,,,,,,,,No,
45.4663448,-75.5447918,525,1219,32573,Bob MacQuarrie Recreation Complex - Orléans,1490 Youville Drive, ,,,,,Yes,,,No,
45.2979367,-75.8924882,1435,347,31441,Dunlop Park,15 Dunlop Court,Yes,,,,, ,,,No,
45.2705326,-75.7605801,1485,497,31626,Horace Park,15 Horace Court,Yes,,,,, ,,,No,
45.268345,-75.9433917,1256,1631,32514,Kittiwake Park,15 Kittiwake Drive,Yes,,,,,No,,,No,
45.4442294,-75.6757232,1185,942,32043,Lindenlea Park,15 Rockcliffe Way,Yes,,,,, ,,,No,
45.3056452,-75.8995604,1266,987,32087,Sewell Park,15 Sewell Way, ,,,,, ,,,No,
45.2680362,-75.8280102,344,1062,32183,Rooney Park,15 Steeple Hill Crescent,Yes,,,,, ,,,No,
45.3156329,-75.9335827,1424,2189,35377,Broughton Park,150 Battersea Crescent,,,,,,,,,Yes,
45.2699301,-75.7094777,395,1690,32782,Harbour View Park,150 Harbour View Street,Yes,,,,, ,,,No,
45.3765509,-75.7404221,60,584,31711,Raven Park,1500 Larose Avenue,Yes,,,,, ,,,No,
45.263135,-75.9078733,1623,989,55239,CARDELREC Recreation Complex (Goulbourn),1500 Shea Road,,,,,,Yes,,,,
45.157508,-75.6473485,1052,125,31167,Blue Rock Park,1514 Blue Rock Avenue,Yes,,,,, ,,,Yes,
45.3611001,-75.856906,467,444,31572,Barry Mullen Park,152 Grandview Road,Yes,,,,, ,,,No,
45.3724525,-75.7391157,263,161,31220,Bellevue Manor Park,1520 Caldwell Avenue,Yes,,,,, ,,,No,
45.358187,-75.640688,1497,1647,32460,Recreational Trail,1534 Cahill Drive, ,,,,,No,,,No,
45.4207922,-75.6681165,490,660,31638,Dutchie's Hole Park,154 Mann Avenue,Yes,,,,,Yes,,,No,
45.5117034,-75.4570983,632,1332,32370,Bella Vista Park,1541 Carino Crescent,Yes,,,,, ,,,Yes,
45.2859893,-75.7090584,738,884,31999,Redpath Park,155 Redpath Drive, ,,,,, ,,,No,
45.4488032,-75.4613725,1202,2461,35623,Norman Edwards Park,155 Sunshine Crescent,Yes,,,,,,,,Yes,
45.3717853,-75.6276348,1014,1644,32457,Recreational Trail,1550 Johnston Road, ,,,,,No,,,No,
45.4508151,-75.5380756,1352,326,31402,Chapel Hill Park,1556 Forest Valley Drive,Yes,,,,, ,,,No,
45.3605529,-75.9777854,281,1612,32525,Bannockburn Park,1557 Landel Drive,Yes,,,,,No,,,No,
45.373205,-75.6478005,1306,474,31606,Heatherington Park,1560 Heatherington Road, ,,,,, ,,,No,
45.4632218,-75.5195278,1023,224,31276,Garneau Park,1567 Champneuf Drive,Yes,,,,, ,,,No,
45.24629,-75.581801,1637,576,32816,Stanley Park,1575 Lakeshore Drive,Yes,,,,, ,,,No,
45.4270852,-75.6071864,1120,46,31063,Queensway Park,1580 Telesat Court, ,,,,, ,,,No,
45.2931847,-75.8757307,1486,204,31249,Hope Cloutier Park,159 Old Colony Road,Yes,,,,, ,,,No,
45.4082682,-75.6594934,234,23,31030,Dale Park,1590 Alta Vista Drive,Yes,,,,, ,,,No,
45.4672121,-75.5414778,370,1326,32353,Grey Nuns Park,1595 Grey Nuns Drive,Yes,,,,, ,,,No,
45.4784675,-75.4738591,1194,1128,35249,Varennes Park,1595 Varennes Boulevard,,,,,,,,,No,
45.3621866,-75.7234715,676,804,31915,Parthia Park,16 Parthia Avenue,Yes,,,,, ,,,No,
,,1295,311,31372,Doug Frobel Park,16 Rowley Avenue,Yes,,,,, ,,,Yes,
,,818,577,31699,Mahoney Park,160 Lanark Avenue, ,,,,, ,,,Yes,
,,1086,577,35847,Mahoney Park,160 Lanark Avenue,,,,,,,,,No,
,,1171,577,31700,Mahoney Park,160 Lanark Avenue,Yes,,,,, ,,,Yes,
,,723,843,31959,Kinsella Park,1600 Prestwick Drive, ,,,,, ,,,No,
,,1027,122,31160,Calzavara Family Park,1602 Blohm Drive,Yes,,,,, ,,,Yes,
,,1662,122,31161,Calzavara Family Park,1602 Blohm Drive,Yes,,,,, ,,,Yes,
,,730,1171,32633,Kars Recreation Centre,1604 Old Wellington Street,Yes,,,,, ,,,No,
,,565,553,31678,Grasshopper Hill/Kilborn Park,1609 Kilborn Avenue,Yes,,,,,Yes,,,No,
,,815,553,31679,Grasshopper Hill/Kilborn Park,1609 Kilborn Avenue,,,,,,Yes,,,Yes,
,,270,741,32688,Copeland Park,1609 Navaho Drive, ,,,,, ,,,No,
,,320,741,32686,Copeland Park,1609 Navaho Drive,Yes,,,,, ,,,No,
,,1704,440,32441,John Gooch Park,161 Goldridge Drive, ,,,,,No,,,No,
,,155,212,31258,Cedar Mills Park,1620 Cedar Mills Road, ,,,,, ,,,No,
,,156,212,31256,Cedar Mills Park,1620 Cedar Mills Road, ,,,,, ,,,No,
,,1019,212,31257,Cedar Mills Park,1620 Cedar Mills Road, ,,,,, ,,,No,
,,276,328,31406,Balena Park,1640 Devon Street, ,,,,, ,,,No,
,,277,328,31407,Balena Park,1640 Devon Street,Yes,,,,, ,,,No,
,,278,328,31408,Balena Park,1640 Devon Street, ,,,,, ,,,No,
,,280,328,32847,Balena Park,1640 Devon Street, ,,,,, ,,,No,
,,1299,328,31410,Balena Park,1640 Devon Street,Yes,,,,, ,,,No,
,,37,39,31060,Arlington Park,165 Arlington Avenue, ,,,,,Yes,,,No,
,,166,2505,53649,Lamprey Park,165 Lamprey Street,Yes,,,,,,,,Yes,
,,400,1870,36250,Fawn Meadow Park,165 Meandering Brook Drive,Yes,,,,,,,,No,
,,402,1870,36253,Fawn Meadow Park,165 Meandering Brook Drive,,,,,,,,,No,
,,700,1729,32832,Frenette Park,1654 Frenette Street,Yes,,,,, ,,,No,
,,430,415,31541,St. Luke's Park,166 Frank Street, ,,,,, ,,,No,
,,1130,415,32716,St. Luke's Park,166 Frank Street, ,,,,, ,,,No,
,,1351,415,31540,St. Luke's Park,166 Frank Street,Yes,,,,, ,,,No,
,,1507,415,31542,St. Luke's Park,166 Frank Street, ,,,,, ,,,No,
,,341,31,31040,Carleton Heights Park,1665 Apeldoorn Avenue, ,,,,, ,,,No,
,,342,31,31039,Carleton Heights Park,1665 Apeldoorn Avenue,Yes,,,,, ,,,Yes,
,,990,1076,32587,Marcel Bériault Park,1691 Sunview Drive,Yes,,,,,Yes,,,No,
,,1427,1076,32585,Marcel Bériault Park,1691 Sunview Drive, ,,,,,Yes,,,Yes,
,,1505,1076,32202,Marcel Bériault Park,1691 Sunview Drive,,,,,,Yes,,,No,
,,844,595,31723,Gilbey Park,17 Gilbey Drive, ,,,,, ,,,No,
,,1007,595,31724,Gilbey Park,17 Gilbey Drive,Yes,,,,, ,,,No,
,,1346,1567,32412,Hummingbird Park,17 Upwood Street,Yes,,,,, ,,,No,
,,1348,1567,32413,Hummingbird Park,17 Upwood Street, ,,,,, ,,,No,
,,409,67,31084,Barrington Park,1705 Orléans Boulevard, ,,,,, ,,,No,
,,464,67,31085,Barrington Park,1705 Orléans Boulevard, ,,,,, ,,,No,
,,465,67,31086,Barrington Park,1705 Orléans Boulevard,Yes,,,,, ,,,No,
,,466,67,31087,Barrington Park,1705 Orléans Boulevard, ,,,,, ,,,No,
,,1375,67,31088,Barrington Park,1705 Orléans Boulevard, ,,,,, ,,,No,
,,235,2553,52337,Devonian Park,171 Escarpment Crescent,Yes,,,,,,,,Yes,
,,176,1031,35477,Russell Boyd Park,1735 St. Bernard Street,,,,,,,,,Yes,
,,618,1031,32152,Russell Boyd Park,1735 St. Bernard Street, ,,,,, ,,,No,
,,916,1031,35479,Russell Boyd Park,1735 St. Bernard Street,,,,,,,,,Yes,
,,939,1031,32151,Russell Boyd Park,1735 St. Bernard Street,Yes,,,,, ,,,No,
,,940,1031,32704,Russell Boyd Park,1735 St. Bernard Street, ,,,,, ,,,No,
,,1524,1031,32150,Russell Boyd Park,1735 St. Bernard Street, ,,,,, ,,,No,
,,1703,1031,32705,Russell Boyd Park,1735 St. Bernard Street, ,,,,, ,,,No,
,,39,2517,35803,Arcadia Park,175 Calvington Avenue,Yes,,,,,No,,,Yes,
,,40,2517,35805,Arcadia Park,175 Calvington Avenue,No,,,,,No,,,Yes,
,,716,1889,36205,Rodeo Park,175 Rodeo Drive,,,,,,,,,No,
,,1279,1889,36204,Rodeo Park,175 Rodeo Drive,,,,,,,,,No,
,,469,1195,32312,Bayshore Park,175 Woodridge Crescent, ,,,,, ,,,No,
,,471,1195,32317,Bayshore Park,175 Woodridge Crescent,Yes,,,,, ,,,No,
,,480,1195,54475,Bayshore Park,175 Woodridge Crescent,,,,,,,,,,
,,775,1195,32316,Bayshore Park,175 Woodridge Crescent, ,,,,, ,,,No,
,,776,1195,32314,Bayshore Park,175 Woodridge Crescent, ,,,,, ,,,No,
,,727,460,31592,Glen Park,1756 Grey Nuns Drive,Yes,,,,, ,,,No,
,,1204,1066,32186,Stoneboat Park,1765 Stoneboat Crescent, ,,,,, ,,,No,
,,1696,687,31788,Young's Pond Park,177 McCurdy Drive, ,,,,, ,,,No,
,,114,1585,32685,Grammercy Park,177 Whitestone Drive,Yes,,,,, ,,,No,
,,115,1585,32684,Grammercy Park,177 Whitestone Drive, ,,,,, ,,,No,
,,142,848,31963,Primrose Park,179 Primrose Avenue, ,,,,,Yes,,,Yes,This playground has no swing
,,144,848,31962,Primrose Park,179 Primrose Avenue, ,,,,,Yes,,,Yes,
,,282,526,32588,Barnabé Park,1797 Des Epinettes Avenue,Yes,,,,, ,,,No,
,,297,526,31653,Barnabé Park,1797 Des Epinettes Avenue, ,,,,, ,,,No,
,,298,526,31654,Barnabé Park,1797 Des Epinettes Avenue,Yes,,,,, ,,,No,
,,801,526,32589,Barnabé Park,1797 Des Epinettes Avenue, ,,,,, ,,,No,
,,816,556,32506,Lismer Pines Park,18 Kimmins Court, ,,,,, ,,,No,
,,1142,556,32258,Lismer Pines Park,18 Kimmins Court, ,,,,, ,,,No,
,,904,677,31785,Tallwood Park,18 Mattamy Place, ,,,,, ,,,No,
,,905,677,31786,Tallwood Park,18 Mattamy Place, ,,,,, ,,,No,
,,1281,822,31933,Pheasant Run Park,18 Pheasant Run Drive,Yes,,,,, ,,,No,
,,1305,822,31932,Pheasant Run Park,18 Pheasant Run Drive, ,,,,, ,,,No,
,,708,430,31551,Blackburn Park,180 - 190 Glen Park Drive, ,,,,, ,,,No,
,,260,571,32787,Ben Franklin Park East,180 Knoxdale Road,Yes,,,,,Yes,,,No,
,,528,621,31753,Woodroffe Park,180 Lockhart Avenue,Yes,,,,, ,,,No,
,,863,621,31752,Woodroffe Park,180 Lockhart Avenue, ,,,,, ,,,No,
,,1609,621,32692,Woodroffe Park,180 Lockhart Avenue, ,,,,, ,,,No,
,,1642,621,31754,Woodroffe Park,180 Lockhart Avenue, ,,,,, ,,,No,
,,1695,621,31755,Woodroffe Park,180 Lockhart Avenue, ,,,,, ,,,No,
,,486,2555,53065,Sweetvalley Park,180 Sweetvalley Drive,Yes,,,,,,,,Yes,
,,1625,2555,53063,Sweetvalley Park,180 Sweetvalley Drive,,,,,,,,,Yes,
,,657,241,31306,City Centre Park,1800 City Park Drive,Yes,,,,, ,,,No,
,,662,241,31289,City Centre Park,1800 City Park Drive, ,,,,, ,,,No,
,,1526,241,31304,City Centre Park,1800 City Park Drive, ,,,,, ,,,No,
,,546,831,31945,Playfair Park,1801 Playfair Drive,Yes,,,,, ,,,No,
,,33,1046,32158,Alda Burt Park,1816 St-Laurent Boulevard, ,,,,, ,,,No,
,,35,1046,32159,Alda Burt Park,1816 St-Laurent Boulevard,Yes,,,,, ,,,No,
,,941,1046,32747,Alda Burt Park,1816 St-Laurent Boulevard, ,,,,, ,,,No,
,,986,1068,32191,Woodburn Park,1819 Stonehenge Crescent,Yes,,,,, ,,,No,
,,987,1068,32190,Woodburn Park,1819 Stonehenge Crescent, ,,,,, ,,,No,
,,79,2380,34999,Cardinal Creek Community Park,1825 Trim Road,Yes,,,,,,,,Yes,
,,339,2380,35000,Cardinal Creek Community Park,1825 Trim Road,,,,,,,,,Yes,
,,387,2380,34998,Cardinal Creek Community Park,1825 Trim Road,,,,,,,,,Yes,
,,829,2380,34627,Cardinal Creek Community Park,1825 Trim Road,,,,,,,,,Yes,
,,1018,206,31250,Clarence Maheral Park,183 Old Colony Road / 170 Castlefrank Road, ,,,,, ,,,No,
,,1176,206,32613,Clarence Maheral Park,183 Old Colony Road / 170 Castlefrank Road,Yes,,,,,No,,,No,
,,407,971,32075,Hutton Park,1830 Hutton Avenue, ,,,,, ,,,Yes,
,,1240,971,32077,Hutton Park,1830 Hutton Avenue,Yes,,,,, ,,,Yes,
,,357,377,31487,Elmridge Park,1841 Elmridge Drive, ,,,,, ,,,No,
,,384,377,31486,Elmridge Park,1841 Elmridge Drive,Yes,,,,, ,,,No,
,,91,1566,32409,Winterwood Park,1844 Johnston Road, ,,,,, ,,,No,
,,880,1566,32407,Winterwood Park,1844 Johnston Road, ,,,,, ,,,No,
,,1382,1566,32410,Winterwood Park,1844 Johnston Road,Yes,,,,, ,,,No,
,,1452,1566,32408,Winterwood Park,1844 Johnston Road, ,,,,, ,,,No,
,,1598,1566,32411,Winterwood Park,1844 Johnston Road, ,,,,, ,,,No,
,,985,1067,32188,Stonehenge Park,1851 Stonehenge Crescent, ,,,,, ,,,No,
,,1450,1067,32187,Stonehenge Park,1851 Stonehenge Crescent, ,,,,, ,,,No,
,,1009,1005,32756,St. François Park,1855 Simard Drive, ,,,,, ,,,No,
,,1134,1005,32128,St. François Park,1855 Simard Drive,Yes,,,,, ,,,No,
,,1163,1005,32129,St. François Park,1855 Simard Drive, ,,,,, ,,,No,
,,1567,1005,32127,St. François Park,1855 Simard Drive, ,,,,, ,,,No,
,,1476,344,31433,Champagne Park,1861 Markwell Crescent, ,,,,, ,,,Yes,
,,128,1680,32557,Cassia Circle Park,1876 Cassia Circle,Yes,,,,, ,,,No,
,,670,1680,32558,Cassia Circle Park,1876 Cassia Circle, ,,,,,No,,,No,
,,1373,35,31052,Appleford Park,1879 Appleford Street,Yes,,,,, ,,,No,
,,237,325,31399,Des Pionniers Park,1880 Carrigan Drive, ,,,,, ,,,Yes,
,,615,325,31398,Des Pionniers Park,1880 Carrigan Drive, ,,,,,Yes,,,No,
,,616,325,31400,Des Pionniers Park,1880 Carrigan Drive,Yes,,,,, ,,,No,
,,876,2452,35281,Linda Dunn Park,1885 Celeste Way,,,,,,,,,No,
,,1010,2452,34653,Linda Dunn Park,1885 Celeste Way,Yes,,,,,,,,No,
,,1183,2452,35279,Linda Dunn Park,1885 Celeste Way,,,,,,,,,No,
,,373,697,31811,Gérald Poulin Park,1899 Du Clairvaux Road,,,,,, ,,,No,
,,392,697,31813,Gérald Poulin Park,1899 Du Clairvaux Road,Yes,,,,, ,,,No,
,,1140,394,31525,Lionel Britton Park,19 Fifth Avenue,Yes,,,,,Yes,,,No,
,,1586,597,31729,Maki Park,19 Leeming Drive,Yes,,,,,Yes,,,No,
,,984,1064,32185,Stitt Street Park,19 Stitt Street,Yes,,,,, ,,,No,
,,1222,1064,32184,Stitt Street Park,19 Stitt Street, ,,,,, ,,,No,
,,239,403,31533,Sharel Park,1900 Florida Avenue,Yes,,,,, ,,,No,
,,1138,403,31534,Sharel Park,1900 Florida Avenue, ,,,,, ,,,No,
,,1208,403,32735,Sharel Park,1900 Florida Avenue, ,,,,, ,,,No,
,,890,670,31771,Marquis Park,1913 Marquis Avenue, ,,,,, ,,,No,
,,1370,670,31772,Marquis Park,1913 Marquis Avenue,Yes,,,,, ,,,No,
,,388,1328,32360,Cardinal Farm Park,1921 Wildflower Drive,Yes,,,,,Yes,,,No,
,,389,1328,32359,Cardinal Farm Park,1921 Wildflower Drive, ,,,,,,,,Yes,
,,1285,378,31489,Ridge Park,1943 Elmridge Drive, ,,,,, ,,,No,
,,1682,378,32550,Ridge Park,1943 Elmridge Drive, ,,,,, ,,,No,
,,1698,378,31490,Ridge Park,1943 Elmridge Drive,Yes,,,,, ,,,No,
,,83,196,31245,Stirling-Carruthers Park,195 Carruthers Avenue, ,,,,, ,,,No,
,,1419,196,31244,Stirling-Carruthers Park,195 Carruthers Avenue, ,,,,, ,,,No,
,,200,260,31336,Frank J. Licari Park,1990 Cochrane Street / 1274 Vancouver Avenue, ,,,,, ,,,No,
,,202,260,31337,Frank J. Licari Park,1990 Cochrane Street / 1274 Vancouver Avenue,,,,,, ,,,No,
,,210,260,31338,Frank J. Licari Park,1990 Cochrane Street / 1274 Vancouver Avenue,Yes,,,,, ,,,No,
,,211,260,31339,Frank J. Licari Park,1990 Cochrane Street / 1274 Vancouver Avenue, ,,,,, ,,,No,
,,1110,260,56755,Frank J. Licari Park,1990 Cochrane Street / 1274 Vancouver Avenue,,,,,,,,,,
,,59,1186,32302,Windsor Park Ottawa,1B Windsor Avenue,Yes,,,,, ,,,No,
,,588,1186,32303,Windsor Park Ottawa,1B Windsor Avenue,Yes,,,,, ,,,No,
,,735,1186,32299,Windsor Park Ottawa,1B Windsor Avenue, ,,,,, ,,,No,
,,747,1186,32300,Windsor Park Ottawa,1B Windsor Avenue, ,,,,, ,,,No,
,,748,1186,32723,Windsor Park Ottawa,1B Windsor Avenue, ,,,,, ,,,No,
,,1148,1186,32301,Windsor Park Ottawa,1B Windsor Avenue, ,,,,, ,,,No,
,,264,93,31121,Beechcliffe Park,2 Beechcliffe Street, ,,,,, ,,,Yes,
,,1253,1632,32445,Laumann Park,2 Laumann Court, ,,,,,No,,,No,
,,437,351,31447,Green Briar Park,2 Rochon Way, ,,,,, ,,,No,
,,600,351,31449,Green Briar Park,2 Rochon Way,Yes,,,,, ,,,No,
,,1492,351,31446,Green Briar Park,2 Rochon Way, ,,,,, ,,,No,
,,912,1616,32437,Gateshead Park,2 Spalding Avenue, ,,,,,No,,,No,
,,575,1176,32288,"West Ridge Park ""A""",20 West Ridge Drive, ,,,,, ,,,No,
,,1670,1176,32289,"West Ridge Park ""A""",20 West Ridge Drive,Yes,,,,, ,,,No,
,,1713,1176,32626,"West Ridge Park ""A""",20 West Ridge Drive, ,,,,, ,,,No,
,,153,1588,32430,Celebration Park,200 Central Park Drive,Yes,,,,, ,,,No,
,,186,1588,32425,Celebration Park,200 Central Park Drive,,,,,, ,,,No,
,,191,1588,32428,Celebration Park,200 Central Park Drive, ,,,,, ,,,No,
,,193,1588,32427,Celebration Park,200 Central Park Drive, ,,,,, ,,,No,
,,909,1588,35383,Celebration Park,200 Central Park Drive,,,,,,,,,Yes,
,,1206,1588,35381,Celebration Park,200 Central Park Drive,,,,,,,,,Yes,
,,56,2377,34617,Cobble Hill Park,200 Cobble Hill Drive,,,,,,,,,No,
,,266,2377,34618,Cobble Hill Park,200 Cobble Hill Drive,Yes,,,,,,,,No,
,,209,420,31547,Gardenway Park,2001 Gardenway Drive,,,,,, ,,,No,
,,707,420,31000,Gardenway Park,2001 Gardenway Drive,Yes,,,,,Yes,,,No,
,,1167,420,32755,Gardenway Park,2001 Gardenway Drive, ,,,,, ,,,No,
,,1386,334,32749,Gil-O-Julien Park,201 Donald Street, ,,,,, ,,,No,
,,1471,334,31415,Gil-O-Julien Park,201 Donald Street, ,,,,, ,,,No,
,,1647,334,32750,Gil-O-Julien Park,201 Donald Street, ,,,,, ,,,No,
,,204,1948,34639,Forestbrook Park,201 Forestbrook Street,,,,,,,,,No,
,,497,2427,36214,Tempest Park,201 Tempest Drive,,,,,,,,,No,
,,946,1056,32170,New Edinburgh Park,203 Stanley Avenue,Yes,,,,, ,,,No,
,,52,525,31649,Jasmine Park,2040 Jasmine Crescent,Yes,,,,, ,,,No,
,,773,525,31646,Jasmine Park,2040 Jasmine Crescent,,,,,, ,,,No,
,,167,1928,35447,Proudmore Romina Park,205 Romina Street,,,,,,,,,Yes,
,,168,1928,35449,Proudmore Romina Park,205 Romina Street,,,,,,,,,Yes,
,,739,1928,35451,Proudmore Romina Park,205 Romina Street,,,,,,,,,Yes,
,,740,1928,35453,Proudmore Romina Park,205 Romina Street,,,,,,,,,Yes,
,,243,2478,35751,Joseph Vézina Park,205 Serra Ridge,,,,,,,,,No,
,,245,2478,35749,Joseph Vézina Park,205 Serra Ridge,Yes,,,,,,,,Yes,
,,1341,1702,56723,Dunollie Park,2057 Dunollie Crescent,,,,,,,,,No,
,,686,1119,32238,Cahill Park,206 Twyford Street,,,,,, ,,,No,
,,1168,1119,32236,Cahill Park,206 Twyford Street,Yes,,,,, ,,,No,
,,1246,1119,32237,Cahill Park,206 Twyford Street, ,,,,, ,,,No,
,,1269,1119,32235,Cahill Park,206 Twyford Street, ,,,,, ,,,No,
,,1151,102,31126,Kingsmere Park,2074 Benjamin Avenue, ,,,,, ,,,No,
,,1187,102,32438,Kingsmere Park,2074 Benjamin Avenue, ,,,,,No,,,No,
,,1252,102,31127,Kingsmere Park,2074 Benjamin Avenue, ,,,,, ,,,No,
,,1548,102,31044,Kingsmere Park,2074 Benjamin Avenue, ,,,,, ,,,No,
,,1690,102,32695,Kingsmere Park,2074 Benjamin Avenue, ,,,,, ,,,No,
,,1693,102,31124,Kingsmere Park,2074 Benjamin Avenue,Yes,,,,, ,,,No,
,,701,1730,32835,Mariah Park,2081 Ricardo Street,Yes,,,,, ,,,No,
,,55,566,31689,Parkway Park,2095 Kingsley Road,Yes,,,,, ,,,No,
,,378,566,31690,Parkway Park,2095 Kingsley Road, ,,,,, ,,,No,
,,379,566,31691,Parkway Park,2095 Kingsley Road, ,,,,,Yes,,,No,
,,1641,566,31692,Parkway Park,2095 Kingsley Road, ,,,,,Yes,,,No,
,,741,1960,36230,Provence Park,2095 Provence Avenue,,,,,,,,,No,
,,742,1960,36229,Provence Park,2095 Provence Avenue,,,,,,,,,No,
,,1326,1960,36231,Provence Park,2095 Provence Avenue,,,,,,,,,No,
,,1385,1960,36219,Provence Park,2095 Provence Avenue,,,,,,,,,No,
,,1182,2,34661,Leslie Park,21 A Dayton Crescent,Yes,,,,,,,,No,
,,1391,2,31004,Leslie Park,21 A Dayton Crescent, ,,,,, ,,,No,
,,1523,2,31002,Leslie Park,21 A Dayton Crescent, ,,,,, ,,,No,
,,194,545,31674,Forest Creek Park,21 Amy Street,Yes,,,,, ,,,No,
,,1062,545,31673,Forest Creek Park,21 Amy Street, ,,,,, ,,,No,
,,123,2464,35365,Boisdale Park,210 Émerillon Ridge,Yes,,,,,,,,Yes,
,,126,2464,35367,Boisdale Park,210 Émerillon Ridge,,,,,,,,,Yes,
,,314,2464,54913,Boisdale Park,210 Émerillon Ridge,,,,,,,,,,
,,917,2464,35363,Boisdale Park,210 Émerillon Ridge,,,,,,,,,Yes,
,,861,616,35431,Marathon Park,210 Linda Loop,,,,,,,,,Yes,
,,1369,616,31745,Marathon Park,210 Linda Loop,Yes,,,,, ,,,No,
,,796,2637,53763,Merak Park,210 Merak Way,Yes,,,,,,,,Yes,
,,997,1667,35223,Tiger Lily Park,211 Hillman Marsh Way,,,,,,,,,No,
,,1673,1667,35221,Tiger Lily Park,211 Hillman Marsh Way,,,,,,,,,No,
,,1674,1667,35225,Tiger Lily Park,211 Hillman Marsh Way,Yes,,,,,,,,No,
,,438,1675,32556,Avebury Park,2126 Avebury Drive, ,,,,,No,,,No,
,,473,876,31987,Beacon Hill North Recreation Centre,2130 Radford Court,Yes,,,,, ,,,No,
,,737,876,31990,Beacon Hill North Recreation Centre,2130 Radford Court, ,,,,, ,,,No,
,,267,1682,34632,Glandriel Park,2130 Valin Street,Yes,,,,,,,,No,
,,366,1682,34637,Glandriel Park,2130 Valin Street,,,,,,,,,No,
,,75,1090,32748,Hawthorne Park,2139 Tawney Road, ,,,,, ,,,No,
,,412,1090,32216,Hawthorne Park,2139 Tawney Road,Yes,,,,,Yes,,,No,
,,415,1090,32217,Hawthorne Park,2139 Tawney Road, ,,,,,Yes,,,No,
,,991,1090,32215,Hawthorne Park,2139 Tawney Road,Yes,,,,, ,,,No,
,,1081,1967,57711,Lalande Conservation Park,2145 Nantes Street,,,,,,,,,,
,,262,104,31134,Bel-Air Park,2149 Berwick Avenue,Yes,,,,, ,,,No,
,,634,104,31131,Bel-Air Park,2149 Berwick Avenue, ,,,,, ,,,No,
,,650,104,31130,Bel-Air Park,2149 Berwick Avenue, ,,,,, ,,,No,
,,654,104,35361,Bel-Air Park,2149 Berwick Avenue,,,,,,,,,Yes,
,,655,104,31135,Bel-Air Park,2149 Berwick Avenue, ,,,,, ,,,No,
,,69,130,31169,Owl Park,215 Owl Drive, ,,,,, ,,,No,
,,1465,130,31168,Owl Park,215 Owl Drive, ,,,,, ,,,No,
,,1466,130,31170,Owl Park,215 Owl Drive, ,,,,, ,,,No,
,,978,753,31853,Marcel Lalande Park,2157 Northlands Drive,Yes,,,,, ,,,No,
,,1429,753,31856,Marcel Lalande Park,2157 Northlands Drive,Yes,,,,, ,,,No,
,,359,380,31497,Emond Park,217 Emond Street, ,,,,, ,,,No,
,,1029,37,31056,Canterbury Park,2185 Arch Street, ,,,,, ,,,No,
,,1106,37,31057,Canterbury Park,2185 Arch Street,Yes,,,,, ,,,No,
,,1406,37,31059,Canterbury Park,2185 Arch Street, ,,,,, ,,,Yes,
,,489,209,32718,Cathcart Park,219 Cathcart Street,Yes,,,,, ,,,No,
,,1381,209,31255,Cathcart Park,219 Cathcart Street, ,,,,, ,,,No,
,,1273,356,31455,Bob Rainboth Park,2193 East Acres Road,Yes,,,,, ,,,No,
,,1276,356,31454,Bob Rainboth Park,2193 East Acres Road, ,,,,, ,,,No,
,,1443,356,31453,Bob Rainboth Park,2193 East Acres Road,No,,,,, ,,,No,
,,1654,356,31451,Bob Rainboth Park,2193 East Acres Road, ,,,,, ,,,No,
,,1655,356,31452,Bob Rainboth Park,2193 East Acres Road, ,,,,, ,,,No,
,,73,140,31194,Pineglen Park,22 Brisbane Road, ,,,,, ,,,No,
,,1549,140,32673,Pineglen Park,22 Brisbane Road, ,,,,, ,,,No,
,,1550,140,31193,Pineglen Park,22 Brisbane Road, ,,,,, ,,,No,
,,46,555,31681,Riverwood Park,22 Kimberwick Crescent, ,,,,,Yes,,,No,
,,1453,555,31682,Riverwood Park,22 Kimberwick Crescent,Yes,,,,,Yes,,,No,
,,1684,555,31680,Riverwood Park,22 Kimberwick Crescent, ,,,,,Yes,,,No,
,,201,2595,53113,William Bradley Park,22 Porter Street,,,,,,,,,Yes,
,,488,2595,53115,William Bradley Park,22 Porter Street,Yes,,,,,,,,Yes,
,,1099,984,57907,Lockwood Park,22 Seguin Street,,,,,,,,,,
,,1648,984,32086,Lockwood Park,22 Seguin Street, ,,,,, ,,,No,
,,68,1075,32196,Sunray Park,22 Sunray Crescent,Yes,,,,, ,,,No,
,,989,1075,32198,Sunray Park,22 Sunray Crescent, ,,,,, ,,,No,
,,1065,1075,32199,Sunray Park,22 Sunray Crescent, ,,,,, ,,,No,
,,1263,1075,32197,Sunray Park,22 Sunray Crescent, ,,,,, ,,,No,
,,577,916,32017,Stonecrest Park,220 Stoneway Drive,Yes,,,,, ,,,No,
,,639,916,35539,Stonecrest Park,220 Stoneway Drive,,,,,,,,,Yes,
,,1280,916,32018,Stonecrest Park,220 Stoneway Drive, ,,,,, ,,,No,
,,1499,916,32645,Stonecrest Park,220 Stoneway Drive, ,,,,, ,,,No,
,,1542,916,32016,Stonecrest Park,220 Stoneway Drive, ,,,,, ,,,No,
,,315,2424,54955,Bradley Ridge Park,221 Radhika Court,,,,,,,,,,
,,316,2424,54959,Bradley Ridge Park,221 Radhika Court,Yes,,,,,,,,,
,,346,2424,54961,Bradley Ridge Park,221 Radhika Court,,,,,,,,,,
,,641,519,31644,Iona Park,223 Iona Street,Yes,,,,, ,,,No,
,,642,519,57209,Iona Park,223 Iona Street,,,,,,,,,,
,,772,519,31645,Iona Park,223 Iona Street, ,,,,, ,,,No,
,,625,1584,32818,Alphabet Park,225 Scout Street,Yes,,,,, ,,,No,
,,631,1584,32817,Alphabet Park,225 Scout Street, ,,,,, ,,,No,
,,666,1109,36228,Pinecrest Recreation Complex and Park,2250 Torquay Avenue,,,,,,,,,No,
,,1090,1109,36226,Pinecrest Recreation Complex and Park,2250 Torquay Avenue,,,,,,,,,No,
,,1291,1109,36227,Pinecrest Recreation Complex and Park,2250 Torquay Avenue,,,,,,,,,No,
,,213,2396,35053,Foot Guards Park,226 Leamington Way,,,,,,,,,No,
,,214,2396,35057,Foot Guards Park,226 Leamington Way,Yes,,,,,,,,Yes,
,,834,2396,35056,Foot Guards Park,226 Leamington Way,,,,,,,,,Yes,
,,137,2527,52605,Henri-Rocque Park,229 Hepatica Way,No,,,,,No,,,Yes,
,,165,2527,52607,Henri-Rocque Park,229 Hepatica Way,No,,,,,No,,,Yes,
,,967,2527,52609,Henri-Rocque Park,229 Hepatica Way,Yes,,,,,No,,,Yes,
,,302,20,31024,Bryanston Gate Park,23 Alon Street,Yes,,,,, ,,,Yes,
,,1236,20,31025,Bryanston Gate Park,23 Alon Street, ,,,,, ,,,No,
,,778,1264,32646,Cedarhill Estates Park,23 Cedarhill Drive, ,,,,, ,,,No,
,,1060,1711,32801,Hopetown Park,23 Hartsmere Drive, ,,,,, ,,,No,
,,19,794,31895,Donland Park,23 Parker Avenue,Yes,,,,, ,,,No,
,,279,1983,36238,Bandmaster Park,230 Mistral Way,Yes,,,,,,,,Yes,
,,628,273,31350,Alfred Taylor Recreation Facility - North Gower,2300 Community Way,Yes,,,,, ,,,No,
,,1112,273,32593,Alfred Taylor Recreation Facility - North Gower,2300 Community Way, ,,,,,Yes,,,No,
,,1539,273,32594,Alfred Taylor Recreation Facility - North Gower,2300 Community Way, ,,,,,Yes,,,No,
,,900,1021,32140,Sheffield Glen Park,2320 Southvale Crescent, ,,,,, ,,,No,
,,1188,1021,32139,Sheffield Glen Park,2320 Southvale Crescent, ,,,,, ,,,No,
,,1358,1021,32138,Sheffield Glen Park,2320 Southvale Crescent, ,,,,, ,,,No,
,,1448,1146,32254,Rabbi Bulka Kindness Park,2330 Virginia Drive, ,,,,, ,,,No,
,,1070,830,31944,Ridgeview Park,2331 Edwin Crescent, ,,,,, ,,,No,
,,1461,830,31943,Ridgeview Park,2331 Edwin Crescent, ,,,,, ,,,No,
,,692,813,31931,Horace Seabrook Park,2346 Perkins Drive,Yes,,,,, ,,,No,
,,1056,778,31882,Orlando Park,2347 Orlando Avenue,Yes,,,,, ,,,No,
,,982,2543,52681,Leather Leaf Park,235 Leather Leaf Terrace,,,,,,,,,Yes,
,,1129,2543,52683,Leather Leaf Park,235 Leather Leaf Terrace,,,,,,,,,Yes,
,,1272,2543,52685,Leather Leaf Park,235 Leather Leaf Terrace,Yes,,,,,,,,Yes,
,,1635,2543,57783,Leather Leaf Park,235 Leather Leaf Terrace,,,,,,,,,,
,,249,2624,57533,Shuttleworth Park,235 Shuttleworth Drive,Yes,,,,,,,,Yes,
,,681,2624,57535,Shuttleworth Park,235 Shuttleworth Drive,,,,,,,,,Yes,
,,682,2624,57537,Shuttleworth Park,235 Shuttleworth Drive,,,,,,,,,Yes,
,,374,1325,32350,Michael Budd Park,2359 Orient Park Drive, ,,,,, ,,,No,
,,823,1325,32351,Michael Budd Park,2359 Orient Park Drive,Yes,,,,, ,,,No,
,,439,230,31284,Bairds Park,2388 Fitzroy Street, ,,,,, ,,,No,
,,447,230,31283,Bairds Park,2388 Fitzroy Street,Yes,,,,, ,,,No,
,,475,72,31095,Bateman Park,24 Bateman Drive,Yes,,,,, ,,,No,
,,476,72,31096,Bateman Park,24 Bateman Drive, ,,,,, ,,,Yes,
,,619,146,35166,Springhurst Park,24 Brunswick Street,,,,,,,,,Yes,
,,623,146,35170,Springhurst Park,24 Brunswick Street,Yes,,,,,,,,Yes,
,,1040,146,31198,Springhurst Park,24 Brunswick Street, ,,,,, ,,,No,
,,1196,146,31199,Springhurst Park,24 Brunswick Street, ,,,,, ,,,No,
,,1211,146,32722,Springhurst Park,24 Brunswick Street, ,,,,, ,,,No,
,,1245,146,31196,Springhurst Park,24 Brunswick Street,Yes,,,,, ,,,No,
,,1319,146,35168,Springhurst Park,24 Brunswick Street,,,,,,,,,No,
,,1551,146,35172,Springhurst Park,24 Brunswick Street,,,,,,,,,Yes,
,,1552,146,31197,Springhurst Park,24 Brunswick Street, ,,,,, ,,,No,
,,1677,146,35169,Springhurst Park,24 Brunswick Street,,,,,,,,,Yes,
,,1678,146,35173,Springhurst Park,24 Brunswick Street,,,,,,,,,Yes,
,,1679,146,35171,Springhurst Park,24 Brunswick Street,,,,,,,,,Yes,
,,870,999,32111,Laura Dubois Park,24 Shetland Way, ,,,,, ,,,No,
,,1131,999,32112,Laura Dubois Park,24 Shetland Way, ,,,,, ,,,No,
,,1302,999,32113,Laura Dubois Park,24 Shetland Way,Yes,,,,, ,,,No,
,,555,1188,32306,Wyldwood Park,24 Wintergreen Drive, ,,,,, ,,,No,
,,1493,1188,32307,Wyldwood Park,24 Wintergreen Drive,Yes,,,,, ,,,No,
,,377,2545,53687,Sarah McCarthy Park,240 Cedarstone Street,Yes,,,,,,,,Yes,
,,1402,2545,53689,Sarah McCarthy Park,240 Cedarstone Street,,,,,,,,,Yes,
,,225,441,32531,Judy Laughton Park,241 Goldridge Drive, ,,,,, ,,,No,
,,247,252,31334,John Kemp Park,2417 Cleroux Crescent,Yes,,,,, ,,,No,
,,1085,252,31335,John Kemp Park,2417 Cleroux Crescent, ,,,,, ,,,No,
,,8,746,31846,New Orchard Park,243 New Orchard Avenue, ,,,,, ,,,No,
,,977,746,31848,New Orchard Park,243 New Orchard Avenue,Yes,,,,, ,,,No,
,,403,390,56747,Farmstead Ridge Park,2448 Church Street,,,,,,,,,No,
,,798,2646,52359,Meynell Park,245 Meynell Road,Yes,,,,,,,,Yes,
,,830,2381,34645,River's Bend Park,245 Riversedge Crescent,,,,,,,,,No,
,,1413,2381,34644,River's Bend Park,245 Riversedge Crescent,,,,,,,,,No,
,,340,792,31888,Carillon Park,246 Park Street, ,,,,, ,,,No,
,,1154,105,31138,Merivale Gardens Park,25 Bie Street,Yes,,,,, ,,,No,
,,1278,105,31140,Merivale Gardens Park,25 Bie Street,Yes,,,,, ,,,No,
,,1383,424,31549,Gesner Court Park,25 Gesner Court, ,,,,, ,,,No,
,,111,881,31994,Strathcona Park,25 Range Road, ,,,,, ,,,No,
,,1162,881,31996,Strathcona Park,25 Range Road, ,,,,, ,,,No,
,,1591,881,31995,Strathcona Park,25 Range Road,Yes,,,,, ,,,No,
,,1687,881,31997,Strathcona Park,25 Range Road, ,,,,, ,,,No,
,,250,1175,32628,Healey's Heath Park,25 West Healey Avenue, ,,,,, ,,,No,
,,251,1175,32627,Healey's Heath Park,25 West Healey Avenue, ,,,,, ,,,No,
,,411,1175,32285,Healey's Heath Park,25 West Healey Avenue, ,,,,, ,,,No,
,,570,1175,32631,Healey's Heath Park,25 West Healey Avenue, ,,,,, ,,,No,
,,576,1175,32286,Healey's Heath Park,25 West Healey Avenue, ,,,,, ,,,No,
,,731,1175,32287,Healey's Heath Park,25 West Healey Avenue,Yes,,,,, ,,,No,
,,1531,495,31621,Fisher Park,250 Holland Avenue, ,,,,, ,,,Yes,
,,1534,495,31622,Fisher Park,250 Holland Avenue,Yes,,,,, ,,,Yes,
,,109,631,32707,Bruff Park,250 Lorry Greenberg Drive, ,,,,, ,,,Yes,
,,300,631,31757,Bruff Park,250 Lorry Greenberg Drive, ,,,,, ,,,Yes,
,,864,631,31758,Bruff Park,250 Lorry Greenberg Drive,Yes,,,,, ,,,Yes,
,,355,1010,32133,Annie Pootoogook Park,250 Somerset Street,Yes,,,,, ,,,No,
,,356,1010,32130,Annie Pootoogook Park,250 Somerset Street, ,,,,,Yes,,,No,
,,896,1010,32131,Annie Pootoogook Park,250 Somerset Street, ,,,,,Yes,,,No,
,,658,2506,52955,River Mist Park,2520 River Mist Road,,,,,,,,,Yes,
,,659,2506,52957,River Mist Park,2520 River Mist Road,,,,,,,,,Yes,
,,660,2506,52959,River Mist Park,2520 River Mist Road,Yes,,,,,,,,Yes,
,,964,2506,52961,River Mist Park,2520 River Mist Road,,,,,,,,,Yes,
,,536,1510,31211,Fairmile Estates Park,2549 Donnelly Drive, ,,,,,No,,,No,
,,867,1510,31212,Fairmile Estates Park,2549 Donnelly Drive,Yes,,,,, ,,,No,
,,1,1560,32406,Stewart Martin Park,2552 Market Street, ,,,,, ,,,No,
,,104,1560,32405,Stewart Martin Park,2552 Market Street, ,,,,, ,,,No,
,,272,1560,32403,Stewart Martin Park,2552 Market Street, ,,,,, ,,,No,
,,1096,1560,32400,Stewart Martin Park,2552 Market Street, ,,,,, ,,,No,
,,1097,1560,32404,Stewart Martin Park,2552 Market Street, ,,,,, ,,,No,
,,1270,1560,32399,Stewart Martin Park,2552 Market Street,Yes,,,,, ,,,No,
,,1451,1560,32402,Stewart Martin Park,2552 Market Street, ,,,,, ,,,No,
,,1596,1560,32401,Stewart Martin Park,2552 Market Street, ,,,,, ,,,No,
,,220,543,32729,Kaladar Park,2554 Kaladar Avenue, ,,,,, ,,,No,
,,511,543,31666,Kaladar Park,2554 Kaladar Avenue,Yes,,,,, ,,,No,
,,584,543,31667,Kaladar Park,2554 Kaladar Avenue, ,,,,, ,,,No,
,,803,543,31669,Kaladar Park,2554 Kaladar Avenue, ,,,,, ,,,No,
,,1076,568,31693,Riverview Park,256 Knox Crescent,Yes,,,,, ,,,No,
,,1337,568,31695,Riverview Park,256 Knox Crescent, ,,,,, ,,,No,
,,1488,568,31694,Riverview Park,256 Knox Crescent, ,,,,, ,,,No,
,,1216,339,31425,McKendry Park,2567 Dow Street, ,,,,, ,,,No,
,,1221,339,31424,McKendry Park,2567 Dow Street,Yes,,,,, ,,,No,
,,1472,339,31423,McKendry Park,2567 Dow Street, ,,,,, ,,,No,
,,369,1655,32485,Gus Este Park,26 Brookstone Street,Yes,,,,,No,,,No,
,,1207,367,35485,Eleanor Park,26 Eleanor Drive,,,,,,,,,No,
,,1469,367,31471,Eleanor Park,26 Eleanor Drive,Yes,,,,, ,,,No,
,,11,1139,32249,Olmstead Park,26 Viewmount Drive,Yes,,,,, ,,,No,
,,1057,220,31273,Centrepointe Park,260 Centrepointe Drive,No,,,,, ,,,No,
,,1380,220,31272,Centrepointe Park,260 Centrepointe Drive,Yes,,,,, ,,,No,
,,1638,220,31271,Centrepointe Park,260 Centrepointe Drive,Yes,,,,, ,,,No,
,,841,1334,32374,Constance Buckham's Bay Community Centre Park,262 Len Purcell Drive,Yes,,,,, ,,,No,
,,1179,141,31741,Lincoln Heights Park,265 Britannia Road,Yes,,,,, ,,,No,
,,1353,141,32662,Lincoln Heights Park,265 Britannia Road, ,,,,, ,,,No,
,,1354,141,31742,Lincoln Heights Park,265 Britannia Road,Yes,,,,, ,,,No,
,,529,385,31511,Princess Margriet Park,265 Fairmont Avenue, ,,,,, ,,,No,
,,548,385,31509,Princess Margriet Park,265 Fairmont Avenue,Yes,,,,, ,,,No,
,,1123,385,31510,Princess Margriet Park,265 Fairmont Avenue,Yes,,,,, ,,,No,
,,1124,385,31506,Princess Margriet Park,265 Fairmont Avenue, ,,,,, ,,,No,
,,847,2414,35561,Par-La-Ville Park,265 Par-La-Ville Circle,Yes,,,,,,,,No,
,,1622,2414,35563,Par-La-Ville Park,265 Par-La-Ville Circle,,,,,,,,,Yes,
,,1491,715,31823,Lavalee Plaza Park,2655 Monique Avenue,Yes,,,,, ,,,No,
,,1632,715,31822,Lavalee Plaza Park,2655 Monique Avenue, ,,,,, ,,,No,
,,719,827,57029,Hillside Estates Park,2660 Pierrette Drive,,,,,,,,,,
,,1308,827,57025,Hillside Estates Park,2660 Pierrette Drive,Yes,,,,,,,,No,
,,1309,827,57027,Hillside Estates Park,2660 Pierrette Drive,,,,,,,,,,
,,1310,827,57031,Hillside Estates Park,2660 Pierrette Drive,,,,,,,,,,
,,241,435,31565,Joe Rowan Park,2665 Glenwood Drive,Yes,,,,, ,,,No,
,,242,435,31566,Joe Rowan Park,2665 Glenwood Drive, ,,,,, ,,,No,
,,343,435,31567,Joe Rowan Park,2665 Glenwood Drive, ,,,,, ,,,No,
,,419,435,31563,Joe Rowan Park,2665 Glenwood Drive,Yes,,,,,Yes,,,No,
,,408,243,31316,Clare Gardens Park,269 Clare Street, ,,,,, ,,,No,
,,656,243,31317,Clare Gardens Park,269 Clare Street, ,,,,, ,,,No,
,,1049,243,31312,Clare Gardens Park,269 Clare Street,Yes,,,,, ,,,No,
,,1418,243,31311,Clare Gardens Park,269 Clare Street, ,,,,, ,,,No,
,,1147,379,31492,Kinsmen Park,27 Elvina Street,Yes,,,,, ,,,No,
,,1251,379,31493,Kinsmen Park,27 Elvina Street, ,,,,, ,,,No,
,,1254,379,31495,Kinsmen Park,27 Elvina Street, ,,,,, ,,,No,
,,1255,379,31494,Kinsmen Park,27 Elvina Street,,,,,, ,,,No,
,,432,1506,32381,Crossing Bridge Park,27 Hobin Street,Yes,,,,, ,,,No,
,,538,1506,32380,Crossing Bridge Park,27 Hobin Street,Yes,,,,, ,,,No,
,,1233,828,32567,Pinhey's Point Park,270 Pinhey Point Road, ,,,,,No,,,No,
,,1247,828,31942,Pinhey's Point Park,270 Pinhey Point Road, ,,,,, ,,,No,
,,691,1142,32253,Village Green Park,270 Springfield Road, ,,,,, ,,,No,
,,233,1714,32806,Deer Run Park,272 West Ridge Drive,Yes,,,,, ,,,No,
,,612,1714,32804,Deer Run Park,272 West Ridge Drive, ,,,,, ,,,No,
,,1464,366,31470,Eldon Craig Park,2786 Eldo Street,Yes,,,,, ,,,No,
,,1502,366,31469,Eldon Craig Park,2786 Eldo Street, ,,,,, ,,,No,
,,1503,366,56745,Eldon Craig Park,2786 Eldo Street,,,,,,,,,No,
,,1659,366,31468,Eldon Craig Park,2786 Eldo Street, ,,,,, ,,,No,
,,305,665,31768,Bethune Park,279 March Road,Yes,,,,, ,,,No,
,,306,665,31770,Bethune Park,279 March Road,Yes,,,,, ,,,No,
,,1024,225,31278,Chanonhouse Park,28 Chanonhouse Drive,Yes,,,,, ,,,No,
,,970,1661,32772,Cresthaven Park,28 Cresthaven Drive, ,,,,, ,,,No,
,,971,1661,32770,Cresthaven Park,28 Cresthaven Drive,Yes,,,,, ,,,No,
,,1088,1661,32769,Cresthaven Park,28 Cresthaven Drive, ,,,,, ,,,No,
,,119,431,31552,Burnford Park,28 Glencoe Street, ,,,,, ,,,No,
,,301,431,31553,Burnford Park,28 Glencoe Street,Yes,,,,, ,,,No,
,,146,2657,53397,Goldfinch Park,280 Joshua Street,,,,,,,,,Yes,
,,147,2657,53393,Goldfinch Park,280 Joshua Street,,,,,,,,,Yes,
,,800,2657,53395,Goldfinch Park,280 Joshua Street,Yes,,,,,,,,Yes,
,,1232,2657,53399,Goldfinch Park,280 Joshua Street,Yes,,,,,,,,Yes,
,,578,732,31835,Utman Park,280 Mountshannon Drive, ,,,,, ,,,No,
,,951,732,31836,Utman Park,280 Mountshannon Drive,Yes,,,,, ,,,No,
,,349,182,31232,Britannia Park,2805 Carling Avenue, ,,,,, ,,,No,
,,364,182,31229,Britannia Park,2805 Carling Avenue,Yes,,,,, ,,,No,
,,365,182,31230,Britannia Park,2805 Carling Avenue, ,,,,, ,,,No,
,,375,182,31228,Britannia Park,2805 Carling Avenue,,,,,, ,,,No,
,,1556,182,31226,Britannia Park,2805 Carling Avenue, ,,,,, ,,,No,
,,1560,182,31233,Britannia Park,2805 Carling Avenue, ,,,,, ,,,No,
,,514,2457,35631,Diamond Jubilee Park,2810 Findlay Creek Drive / 4008 Kelly Farm Drive,,,,,,,,,Yes,
,,515,2457,35635,Diamond Jubilee Park,2810 Findlay Creek Drive / 4008 Kelly Farm Drive,Yes,,,,,,,,Yes,
,,877,2457,56431,Diamond Jubilee Park,2810 Findlay Creek Drive / 4008 Kelly Farm Drive,,,,,,,,,,
,,878,2457,35633,Diamond Jubilee Park,2810 Findlay Creek Drive / 4008 Kelly Farm Drive,,,,,,,,,Yes,
,,99,1084,32797,Tanmount Park,283 Goldridge Drive, ,,,,,Yes,,,No,
,,835,2408,35129,Citiplace Park,285 Citiplace Drive,Yes,,,,,,,,Yes,
,,503,968,32065,Sandalwood Park,2850 Sandalwood Drive,Yes,,,,, ,,,No,
,,541,968,32064,Sandalwood Park,2850 Sandalwood Drive, ,,,,, ,,,No,
,,826,968,32733,Sandalwood Park,2850 Sandalwood Drive, ,,,,, ,,,No,
,,1100,968,31016,Sandalwood Park,2850 Sandalwood Drive, ,,,,, ,,,No,
,,1426,968,32067,Sandalwood Park,2850 Sandalwood Drive, ,,,,, ,,,No,
,,568,228,31281,Cindy Mitchell Park,288 Chapel Street, ,,,,, ,,,No,
,,1025,228,31280,Cindy Mitchell Park,288 Chapel Street,Yes,,,,, ,,,No,
,,1145,228,32720,Cindy Mitchell Park,288 Chapel Street, ,,,,, ,,,No,
,,1611,228,31282,Cindy Mitchell Park,288 Chapel Street, ,,,,, ,,,No,
,,451,734,56481,Dogwood Park and Munster Hamlet Community Centre,2890 Munster Road,,,,,,,,,,
,,463,734,31840,Dogwood Park and Munster Hamlet Community Centre,2890 Munster Road,Yes,,,,, ,,,No,
,,434,83,32449,Greenpointe Park,29 Greenpointe Drive, ,,,,,No,,,No,
,,601,83,32451,Greenpointe Park,29 Greenpointe Drive,Yes,,,,,No,,,No,
,,14,583,31708,Donoghue Memorial Park,29 Larkspur Drive, ,,,,, ,,,Yes,
,,15,583,31707,Donoghue Memorial Park,29 Larkspur Drive,Yes,,,,, ,,,Yes,
,,187,673,31774,Cedardale Park,29 Mary Drive, ,,,,, ,,,No,
,,190,673,31775,Cedardale Park,29 Mary Drive,,,,,, ,,,No,
,,602,2494,35577,Crownridge Park,290 Meadowbreeze Drive,Yes,,,,,,,,Yes,
,,116,470,35651,Grandeur Park,2915 Haughton Avenue,,,,,,,,,No,
,,753,470,31602,Grandeur Park,2915 Haughton Avenue, ,,,,, ,,,No,
,,754,470,31604,Grandeur Park,2915 Haughton Avenue,Yes,,,,, ,,,No,
,,1173,2040,36248,Dragonfly Park,2920 Findlay Creek Drive,Yes,,,,,,,,No,
,,1210,2040,36247,Dragonfly Park,2920 Findlay Creek Drive,,,,,,,,,No,
,,61,12,32825,Walkley Albion Park,2930 Albion Road North, ,,,,, ,,,No,
,,495,12,32824,Walkley Albion Park,2930 Albion Road North, ,,,,, ,,,No,
,,1683,12,32823,Walkley Albion Park,2930 Albion Road North,Yes,,,,, ,,,No,
,,1259,197,32711,McCormick Park,294 Carruthers Avenue, ,,,,,Yes,,,No,
,,1011,376,31482,Lion's Park,294 Elmgrove Avenue,Yes,,,,, ,,,Yes,
,,1013,376,32699,Lion's Park,294 Elmgrove Avenue, ,,,,, ,,,No,
,,1184,376,31483,Lion's Park,294 Elmgrove Avenue,Yes,,,,, ,,,No,
,,131,1594,32565,Dunrobin Shores Park,2940 Barlow Crescent, ,,,,,No,,,No,
,,491,239,31301,Roy Duncan Park,295 Churchill Avenue North, ,,,,, ,,,No,
,,492,239,31302,Roy Duncan Park,295 Churchill Avenue North, ,,,,, ,,,No,
,,1334,711,31820,Marlene Catterall Park,2955 Michèle Drive,Yes,,,,, ,,,No,
,,1434,711,31818,Marlene Catterall Park,2955 Michèle Drive, ,,,,, ,,,No,
,,1470,711,32660,Marlene Catterall Park,2955 Michèle Drive, ,,,,, ,,,No,
,,103,69,31090,Brucelands Park,2960 Baseline Road, ,,,,, ,,,No,
,,807,940,58653,Mooney's Bay Park,2960 Riverside Drive,Yes,,,,,,,,Yes,
,,1324,940,32037,Mooney's Bay Park,2960 Riverside Drive,Yes,,,,, ,,,No,
,,993,786,31886,Otterson Park,2960 Upper Otterson Place, ,,,,, ,,,No,
,,1274,305,31366,Meadowbrook Park (Rideau),2972 Danbury Way,Yes,,,,, ,,,No,
,,539,384,31503,Fairlea Park,2989 Fairlea Crescent, ,,,,, ,,,No,
,,556,384,31502,Fairlea Park,2989 Fairlea Crescent, ,,,,, ,,,No,
,,1122,384,31504,Fairlea Park,2989 Fairlea Crescent, ,,,,, ,,,No,
,,1699,384,31505,Fairlea Park,2989 Fairlea Crescent,Yes,,,,, ,,,No,
,,812,964,32058,Sieveright Park,2999 Sable Ridge Drive, ,,,,, ,,,No,
,,813,964,32059,Sieveright Park,2999 Sable Ridge Drive,Yes,,,,, ,,,No,
,,825,964,32061,Sieveright Park,2999 Sable Ridge Drive, ,,,,, ,,,No,
,,1144,964,32060,Sieveright Park,2999 Sable Ridge Drive, ,,,,, ,,,No,
,,1442,964,32062,Sieveright Park,2999 Sable Ridge Drive, ,,,,, ,,,No,
,,12,1178,32293,Birdland Park,3 Whippoorwill Drive,Yes,,,,, ,,,No,
,,732,1178,32290,Birdland Park,3 Whippoorwill Drive, ,,,,, ,,,No,
,,410,155,32570,Harold Diceman Park,30 Diceman Crescent, ,,,,, ,,,No,
,,1672,1642,32456,Reston Park,30 Huntersfield Drive, ,,,,,No,,,No,
,,865,1507,49139,Kings Grant Park,30 Queenston Drive / 36 Dr. Neelan Drive,Yes,,,,,,,,No,
,,1327,1507,32383,Kings Grant Park,30 Queenston Drive / 36 Dr. Neelan Drive,Yes,,,,, ,,,No,
,,1689,1507,32382,Kings Grant Park,30 Queenston Drive / 36 Dr. Neelan Drive, ,,,,, ,,,No,
,,1532,1174,32283,Moloughney Park,30 Wessex Road, ,,,,, ,,,No,
,,1570,1174,32282,Moloughney Park,30 Wessex Road,Yes,,,,, ,,,No,
,,252,1190,32308,Tanglewood Park,30 Woodfield Drive, ,,,,, ,,,No,
,,774,1190,32765,Tanglewood Park,30 Woodfield Drive, ,,,,, ,,,No,
,,1333,1190,32764,Tanglewood Park,30 Woodfield Drive, ,,,,, ,,,No,
,,1612,1190,32309,Tanglewood Park,30 Woodfield Drive,Yes,,,,, ,,,No,
,,882,1573,32546,Dr. John Hopps Park,300 Den Haag Drive,Yes,,,,,No,,,No,
,,1318,1573,32545,Dr. John Hopps Park,300 Den Haag Drive, ,,,,,No,,,No,
,,1338,1573,32544,Dr. John Hopps Park,300 Den Haag Drive, ,,,,,No,,,No,
,,132,324,31397,Richelieu Park,300 des Pères-Blancs Avenue, ,,,,, ,,,Yes,
,,145,324,32754,Richelieu Park,300 des Pères-Blancs Avenue, ,,,,, ,,,Yes,
,,493,2528,49175,Cassandra Park,3000 Cassandra Street,,,,,,,,,Yes,
,,644,2528,49173,Cassandra Park,3000 Cassandra Street,,,,,,,,,Yes,
,,645,2528,49171,Cassandra Park,3000 Cassandra Street,Yes,,,,,,,,Yes,
,,966,2519,49165,LeBoutillier Park,301 Leboutillier Avenue,,,,,,,,,Yes,
,,1304,2519,49159,LeBoutillier Park,301 Leboutillier Avenue,,,,,,,,,Yes,
,,1631,2519,49161,LeBoutillier Park,301 Leboutillier Avenue,,,,,,,,,Yes,
,,652,2636,53761,Susanna Kemp Park,301 Ponderosa Street,Yes,,,,,,,,Yes,
,,217,2456,56765,Freshwater Parkette,3025 Freshwater Way,Yes,,,,,,,,No,
,,218,2456,56763,Freshwater Parkette,3025 Freshwater Way,,,,,,,,,Yes,
,,284,1060,32180,Terry Carisse Park,3035 Steeple Hill Crescent, ,,,,, ,,,No,
,,318,1060,32179,Terry Carisse Park,3035 Steeple Hill Crescent,Yes,,,,, ,,,No,
,,961,1060,32181,Terry Carisse Park,3035 Steeple Hill Crescent, ,,,,, ,,,No,
,,227,314,31377,Davis Park,304 Davis Avenue,Yes,,,,, ,,,No,
,,613,314,31376,Davis Park,304 Davis Avenue, ,,,,, ,,,No,
,,1411,558,31684,Kinburn Community Centre,3045 Kinburn Side Road,Yes,,,,,Yes,,,No,
,,649,2600,49263,Wing Officer Willa Walker Park,305 Lysander Place,Yes,,,,,,,,Yes,
,,1034,2600,49261,Wing Officer Willa Walker Park,305 Lysander Place,,,,,,,,,Yes,
,,215,2463,35401,Fraser Fields Parkette,309 Harthill Way,,,,,,,,,Yes,
,,637,1637,35469,Rosetta Park,31 Rosetta Avenue,,,,,,,,,Yes,
,,928,1637,32452,Rosetta Park,31 Rosetta Avenue, ,,,,,No,,,No,
,,1705,1637,32453,Rosetta Park,31 Rosetta Avenue, ,,,,,No,,,No,
,,71,952,32049,Roundhay Park / Starwood Park,31 Roundhay Drive,Yes,,,,, ,,,No,
,,498,952,32048,Roundhay Park / Starwood Park,31 Roundhay Drive, ,,,,, ,,,No,
,,566,952,32047,Roundhay Park / Starwood Park,31 Roundhay Drive, ,,,,, ,,,No,
,,809,952,32050,Roundhay Park / Starwood Park,31 Roundhay Drive, ,,,,, ,,,No,
,,1543,65,31082,Fisher Heights Park,31 Sutton Place,Yes,,,,,No,,,Yes,
,,1192,1732,35245,Upcountry Park,310 Upcountry Drive,,,,,,,,,No,
,,1193,1732,35247,Upcountry Park,310 Upcountry Drive,,,,,,,,,No,
,,1401,186,31234,Andrew Haydon Park,3127 Carling Avenue, ,,,,, ,,,No,
,,1437,186,31239,Andrew Haydon Park,3127 Carling Avenue, ,,,,, ,,,No,
,,1483,186,31238,Andrew Haydon Park,3127 Carling Avenue, ,,,,, ,,,No,
,,1557,186,31240,Andrew Haydon Park,3127 Carling Avenue, ,,,,, ,,,No,
,,347,531,31656,McKenna Park / Jockvale Heritage Building,3131 Jockvale Road, ,,,,, ,,,No,
,,1031,2585,35917,Mark Yakabuski Park,315 Haliburton Heights,Yes,,,,,,,,Yes,
,,1577,1213,32319,Kenmore Bicentennial Park,3151 Yorks Corners Road,Yes,,,,, ,,,No,
,,177,1122,35481,Uplands Park,3165 Uplands Drive,,,,,,,,,Yes,
,,178,1122,32239,Uplands Park,3165 Uplands Drive, ,,,,, ,,,Yes,
,,596,1122,32241,Uplands Park,3165 Uplands Drive, ,,,,, ,,,No,
,,1407,1122,32240,Uplands Park,3165 Uplands Drive,,,,,, ,,,No,
,,184,2120,36236,Aquaview Park,318 Aquaview Drive,,,,,,,,,No,
,,746,2120,36237,Aquaview Park,318 Aquaview Drive,Yes,,,,,,,,No,
,,780,1320,32333,North Harrow Park,32 North Harrow Drive,,,,,, ,,,No,
,,1105,1320,32334,North Harrow Park,32 North Harrow Drive,Yes,,,,, ,,,No,
,,1286,1033,35140,Nault Park,325 St. Denis Street,Yes,,,,,,,,No,
,,1363,1033,35139,Nault Park,325 St. Denis Street,,,,,,Yes,,,No,
,,833,2394,35237,Tucana Park,325 Tucana Way,,,,,,,,,No,
,,1189,2394,35235,Tucana Park,325 Tucana Way,,,,,,,,,No,
,,1190,2394,35239,Tucana Park,325 Tucana Way,,,,,,,,,No,
,,1191,2394,35241,Tucana Park,325 Tucana Way,,,,,,,,,No,
,,1225,187,32655,Dick Bell Park,3259 Carling Avenue, ,,,,, ,,,No,
,,1558,187,32654,Dick Bell Park,3259 Carling Avenue, ,,,,, ,,,No,
,,1066,374,31480,Mary Durling Park,33 Brae Crescent,Yes,,,,, ,,,No,
,,87,433,31562,Glenmanor Park,33 Glenmanor Drive,Yes,,,,, ,,,No,
,,92,433,31561,Glenmanor Park,33 Glenmanor Drive, ,,,,, ,,,No,
,,164,873,31985,Overbrook Park,33 Quill Street, ,,,,, ,,,Yes,
,,736,873,31982,Overbrook Park,33 Quill Street,,,,,, ,,,No,
,,1283,873,35435,Overbrook Park,33 Quill Street,,,,,,,,,No,
,,1389,873,31984,Overbrook Park,33 Quill Street,Yes,,,,, ,,,No,
,,1688,873,31983,Overbrook Park,33 Quill Street, ,,,,, ,,,No,
,,1715,873,32830,Overbrook Park,33 Quill Street, ,,,,,No,,,No,
,,543,506,31634,Richmond Lions Community Park,3302 Huntley Road, ,,,,, ,,,No,
,,770,506,31635,Richmond Lions Community Park,3302 Huntley Road, ,,,,, ,,,No,
,,678,806,31917,McCarthy Park,3320 Paul Anka Drive, ,,,,, ,,,No,
,,1445,806,58287,McCarthy Park,3320 Paul Anka Drive,,,,,,,,,,
,,1480,806,58285,McCarthy Park,3320 Paul Anka Drive,,,,,,,,,,
,,285,923,32025,Eccolands Park,334 River Road,Yes,,,,, ,,,No,
,,783,923,32028,Eccolands Park,334 River Road,No,,,,, ,,,No,
,,1538,923,32027,Eccolands Park,334 River Road, ,,,,, ,,,No,
,,286,1118,32234,Paul Landry Park,3345 Uplands Drive, ,,,,, ,,,No,
,,685,1118,32233,Paul Landry Park,3345 Uplands Drive, ,,,,, ,,,No,
,,680,2623,52263,Memorial Grove Park,335 Memorial Grove,Yes,,,,,,,,Yes,
,,1161,2623,52261,Memorial Grove Park,335 Memorial Grove,,,,,,,,,Yes,
,,547,133,31177,Bramble Lane Park - Ridgewood Tot Lot,3366 Bramble Lane,Yes,,,,, ,,,Yes,
,,1422,133,31178,Bramble Lane Park - Ridgewood Tot Lot,3366 Bramble Lane,Yes,,,,, ,,,Yes,
,,499,307,32703,Sawmill Creek Pool Park,3380 D'Aoust Avenue, ,,,,, ,,,No,
,,531,307,31474,Sawmill Creek Pool Park,3380 D'Aoust Avenue,Yes,,,,, ,,,No,
,,1292,307,31473,Sawmill Creek Pool Park,3380 D'Aoust Avenue, ,,,,, ,,,No,
,,1293,307,31367,Sawmill Creek Pool Park,3380 D'Aoust Avenue, ,,,,, ,,,No,
,,969,2542,52933,Richardson Heritage Park,34 Arkose Street,Yes,,,,,,,,Yes,
,,981,2542,52931,Richardson Heritage Park,34 Arkose Street,,,,,,,,,Yes,
,,1621,2542,52929,Richardson Heritage Park,34 Arkose Street,,,,,,,,,Yes,
,,1265,315,31380,Rowe Park,341 Davis Avenue, ,,,,, ,,,No,
,,913,1620,32008,Valleystream Park,3412 Richmond Road,Yes,,,,, ,,,No,
,,1610,1620,32009,Valleystream Park,3412 Richmond Road, ,,,,, ,,,No,
,,229,99,31123,Dalhousie South Park,343 Bell Street South, ,,,,,Yes,,,No,
,,230,99,56319,Dalhousie South Park,343 Bell Street South,,,,,,Yes,,,,
,,980,768,31875,Carrol Homestead Community Park / Corkery Community Centre,3447 Old Almonte Road,Yes,,,,, ,,,No,
,,1597,768,31871,Carrol Homestead Community Park / Corkery Community Centre,3447 Old Almonte Road, ,,,,, ,,,No,
,,50,824,31937,Irwin Gate Park,345 Pickford Drive, ,,,,, ,,,No,
,,694,824,31936,Irwin Gate Park,345 Pickford Drive,Yes,,,,, ,,,No,
,,134,842,31958,Queenswood Ridge Park,346 Kennedy Lane East,Yes,,,,, ,,,Yes,
,,172,842,31957,Queenswood Ridge Park,346 Kennedy Lane East, ,,,,, ,,,Yes,
,,125,150,31202,Bordeleau Park,349 Bruyère Street,Yes,,,,, ,,,No,
,,831,2388,36202,River Run Park,3490 River Run Avenue,,,,,,,,,No,
,,1593,2388,36203,River Run Park,3490 River Run Avenue,,,,,,,,,No,
,,893,2462,57133,Hunt Club Gate Park,350 Macoun Circle,Yes,,,,,,,,Yes,
,,875,2448,58601,Minto Recreation Complex - Barrhaven,3500 Cambrian Road,,,,,,,,,,
,,1535,2448,58603,Minto Recreation Complex - Barrhaven,3500 Cambrian Road,,,,,,,,,,
,,1484,244,31319,Alvin Heights Park,352 London Terrace,Yes,,,,,Yes,,,No,
,,390,2389,35411,Half Moon Bay Park,3525 Cambrian Road,Yes,,,,,,,,Yes,
,,394,2389,35409,Half Moon Bay Park,3525 Cambrian Road,,,,,,,,,Yes,
,,397,2389,49305,Half Moon Bay Park,3525 Cambrian Road,,,,,,,,,Yes,
,,832,2389,35407,Half Moon Bay Park,3525 Cambrian Road,,,,,,,,,Yes,
,,351,2426,36217,Brigitta Park,354 Brigitta Street,,,,,,,,,No,
,,49,574,31698,Janeville Park,355 Iberville Street,Yes,,,,, ,,,No,
,,428,990,32090,Windsor Park Gloucester,3560 Wyman Place, ,,,,, ,,,No,
,,853,990,32092,Windsor Park Gloucester,3560 Wyman Place, ,,,,, ,,,No,
,,854,990,32093,Windsor Park Gloucester,3560 Wyman Place, ,,,,, ,,,No,
,,1714,990,32091,Windsor Park Gloucester,3560 Wyman Place,Yes,,,,, ,,,No,
,,63,1111,32224,Trappers Park,3580 Trapper's Road, ,,,,, ,,,No,
,,1545,1111,32225,Trappers Park,3580 Trapper's Road, ,,,,, ,,,No,
,,382,970,32070,Yves Chénier Park,3585 Sarsfield Road, ,,,,, ,,,No,
,,571,970,32071,Yves Chénier Park,3585 Sarsfield Road,Yes,,,,, ,,,No,
,,827,970,32069,Yves Chénier Park,3585 Sarsfield Road, ,,,,, ,,,No,
,,1043,267,31340,Navan Centennial Park,3591 Wickham Court, ,,,,, ,,,No,
,,1102,267,31344,Navan Centennial Park,3591 Wickham Court,,,,,, ,,,No,
,,1103,267,31345,Navan Centennial Park,3591 Wickham Court,Yes,,,,, ,,,No,
,,1365,267,31341,Navan Centennial Park,3591 Wickham Court,Yes,,,,, ,,,Yes,
,,1367,267,31342,Navan Centennial Park,3591 Wickham Court, ,,,,,Yes,,,No,
,,307,1656,32777,Berry Glen Park,36 Berry Glen Street,Yes,,,,, ,,,No,
,,308,1656,32780,Berry Glen Park,36 Berry Glen Street, ,,,,, ,,,No,
,,312,1656,32779,Berry Glen Park,36 Berry Glen Street, ,,,,, ,,,No,
,,163,2513,53655,Trend Park,36 Canfield Road,Yes,,,,,,,,,
,,449,692,31793,Hemlock Park,361 Meadow Park Place, ,,,,,Yes,,,No,
,,931,692,31795,Hemlock Park,361 Meadow Park Place,Yes,,,,,,,,No,
,,932,692,31794,Hemlock Park,361 Meadow Park Place, ,,,,, ,,,No,
,,1220,955,32051,Mayfair Park,361 Roxdale Avenue,Yes,,,,,Yes,,,No,
,,1257,955,32052,Mayfair Park,361 Roxdale Avenue, ,,,,,Yes,,,No,
,,295,160,31217,Greenboro Park and Community Centre,363 Lorry Greenberg Drive, ,,,,, ,,,No,
,,580,160,51813,Greenboro Park and Community Centre,363 Lorry Greenberg Drive,Yes,,,,,,,,No,
,,590,160,31212,Greenboro Park and Community Centre,363 Lorry Greenberg Drive, ,,,,, ,,,No,
,,1238,160,31215,Greenboro Park and Community Centre,363 Lorry Greenberg Drive, ,,,,, ,,,No,
,,1554,160,31214,Greenboro Park and Community Centre,363 Lorry Greenberg Drive, ,,,,, ,,,No,
,,1603,744,51517,Notre-Dame-des-Champs Park,3659 Navan Road,Yes,,,,,,,,Yes,
,,423,793,31891,Parkdale Park,366 Parkdale Avenue, ,,,,,Yes,,,No,
,,994,793,31890,Parkdale Park,366 Parkdale Avenue, ,,,,,Yes,,,No,
,,1071,793,31893,Parkdale Park,366 Parkdale Avenue, ,,,,,Yes,,,No,
,,1146,793,32710,Parkdale Park,366 Parkdale Avenue, ,,,,, ,,,No,
,,1546,793,31892,Parkdale Park,366 Parkdale Avenue,Yes,,,,, ,,,No,
,,540,1712,36245,Coyote Run Park,367 West Ridge Drive,Yes,,,,,,,,No,
,,113,839,31951,Presland Park,368 Presland Road, ,,,,, ,,,No,
,,362,839,31952,Presland Park,368 Presland Road, ,,,,, ,,,No,
,,721,839,31950,Presland Park,368 Presland Road,Yes,,,,, ,,,No,
,,181,33,32616,Appaloosa Park,37 Appaloosa Drive, ,,,,,No,,,No,
,,1717,231,31286,Charing Park,37 Chartwell Avenue, ,,,,, ,,,No,
,,1718,231,31288,Charing Park,37 Chartwell Avenue,Yes,,,,, ,,,No,
,,1719,231,31287,Charing Park,37 Chartwell Avenue, ,,,,, ,,,No,
,,222,2085,34652,Juanita Snelgrove Park,374 Kinghorn Crescent,Yes,,,,,,,,No,
,,223,2085,34649,Juanita Snelgrove Park,374 Kinghorn Crescent,,,,,,,,,No,
,,224,2085,34651,Juanita Snelgrove Park,374 Kinghorn Crescent,,,,,,,,,No,
,,972,1663,32843,Mountain Meadows Park,3740 Mountain Meadows Crescent,,,,,, ,,,No,
,,1288,1663,35537,Mountain Meadows Park,3740 Mountain Meadows Crescent,,,,,,,,,Yes,
,,1325,1663,34657,Mountain Meadows Park,3740 Mountain Meadows Crescent,Yes,,,,, ,,,No,
,,77,16,31020,Emerald Woods Park,3795 Alderwood Street, ,,,,, ,,,No,
,,330,16,31017,Emerald Woods Park,3795 Alderwood Street, ,,,,, ,,,No,
,,380,16,31019,Emerald Woods Park,3795 Alderwood Street,Yes,,,,, ,,,No,
,,771,507,31636,Huntsman Park,38 A Huntsman Crescent, ,,,,, ,,,No,
,,1487,507,31637,Huntsman Park,38 A Huntsman Crescent,Yes,,,,, ,,,No,
,,140,235,31294,Cattail Creek Park,38 Chimo Drive,Yes,,,,, ,,,No,
,,143,235,31297,Cattail Creek Park,38 Chimo Drive,Yes,,,,, ,,,No,
,,1026,235,31298,Cattail Creek Park,38 Chimo Drive, ,,,,, ,,,No,
,,560,1648,32507,Uplands Riverside Park,3860 Riverside Drive, ,,,,,No,,,No,
,,591,1648,32501,Uplands Riverside Park,3860 Riverside Drive, ,,,,,No,,,No,
,,952,1648,32502,Uplands Riverside Park,3860 Riverside Drive,Yes,,,,,No,,,No,
,,953,1648,32503,Uplands Riverside Park,3860 Riverside Drive, ,,,,,No,,,No,
,,1433,1648,32504,Uplands Riverside Park,3860 Riverside Drive, ,,,,,No,,,No,
,,1584,1648,32505,Uplands Riverside Park,3860 Riverside Drive, ,,,,,No,,,No,
,,891,2460,57195,Inspiration Park,38A Winthrop Private,,,,,,,,,,
,,1242,2460,57193,Inspiration Park,38A Winthrop Private,,,,,,,,,,
,,518,249,31303,Brantwood Park,39 Onslow Crescent, ,,,,, ,,,No,
,,520,249,31330,Brantwood Park,39 Onslow Crescent, ,,,,, ,,,No,
,,521,249,31328,Brantwood Park,39 Onslow Crescent,,,,,, ,,,No,
,,545,249,31325,Brantwood Park,39 Onslow Crescent, ,,,,, ,,,No,
,,1107,249,31329,Brantwood Park,39 Onslow Crescent, ,,,,, ,,,No,
,,1108,249,31331,Brantwood Park,39 Onslow Crescent, ,,,,, ,,,No,
,,1109,249,31326,Brantwood Park,39 Onslow Crescent, ,,,,, ,,,No,
,,585,996,32103,Sherry Lane Park,39 Sherry Lane, ,,,,, ,,,No,
,,869,996,32101,Sherry Lane Park,39 Sherry Lane,Yes,,,,, ,,,No,
,,1094,996,32104,Sherry Lane Park,39 Sherry Lane, ,,,,, ,,,No,
,,1530,996,34644,Sherry Lane Park,39 Sherry Lane, ,,,,, ,,,No,
,,1702,996,32102,Sherry Lane Park,39 Sherry Lane, ,,,,, ,,,No,
,,440,47,31067,Baden Park,3900 Autumnwood Street,Yes,,,,, ,,,No,
,,444,47,31066,Baden Park,3900 Autumnwood Street, ,,,,, ,,,No,
,,78,10,36216,Aladdin Park,3939 Albion Road, ,,,,, ,,,No,
,,240,10,53869,Aladdin Park,3939 Albion Road,Yes,,,,,,,,,
,,609,10,34654,Aladdin Park,3939 Albion Road,Yes,,,,, ,,,No,
,,1235,10,31013,Aladdin Park,3939 Albion Road,,,,,, ,,,No,
,,1691,611,31736,Kiwanis Park,395 Levis Avenue,Yes,,,,, ,,,No,
,,1692,611,31737,Kiwanis Park,395 Levis Avenue,,,,,, ,,,Yes,
,,138,2622,52253,Serenade Park,395 Serenade Crescent,,,,,,,,,Yes,
,,506,2622,52255,Serenade Park,395 Serenade Crescent,,,,,,,,,Yes,
,,661,2622,52251,Serenade Park,395 Serenade Crescent,Yes,,,,,,,,Yes,
,,689,1141,32251,Raoul Wallenberg Park,397 Viewmount Drive, ,,,,, ,,,No,
,,690,1141,32252,Raoul Wallenberg Park,397 Viewmount Drive,Yes,,,,, ,,,No,
,,1581,1141,32250,Raoul Wallenberg Park,397 Viewmount Drive,Yes,,,,,Yes,,,No,
,,1628,1141,32679,Raoul Wallenberg Park,397 Viewmount Drive, ,,,,, ,,,No,
,,624,2601,49273,Alliance Park,398 Codd's Road,Yes,,,,,,,,Yes,
,,762,890,32004,Reid Park,40 Reid Avenue, ,,,,, ,,,No,
,,1264,890,32003,Reid Park,40 Reid Avenue, ,,,,, ,,,No,
,,1366,890,32002,Reid Park,40 Reid Avenue, ,,,,, ,,,No,
,,1396,890,32709,Reid Park,40 Reid Avenue, ,,,,, ,,,No,
,,1561,890,32005,Reid Park,40 Reid Avenue,Yes,,,,, ,,,No,
,,510,245,31323,Jules Morin Park,400 Clarence Street East,Yes,,,,, ,,,Yes,
,,710,438,31568,Jim Malone Park,400 Goldridge Drive, ,,,,,Yes,,,No,
,,768,921,32021,Riverain Park,400 North River Road, ,,,,, ,,,No,
,,769,921,32023,Riverain Park,400 North River Road, ,,,,, ,,,No,
,,1083,921,32022,Riverain Park,400 North River Road, ,,,,, ,,,No,
,,1205,921,32024,Riverain Park,400 North River Road,Yes,,,,, ,,,No,
,,743,2109,36257,Keyrock Park,401 Brunskill Way,,,,,,,,,No,
,,1619,2109,36256,Keyrock Park,401 Brunskill Way,,,,,,,,,No,
,,48,82,31110,Isaiah Scharfe Park,41 Bearbrook Road,Yes,,,,, ,,,No,
,,169,2113,35295,Richcraft Recreation Complex - Kanata,4101 Innovation Drive,,,,,,,,,Yes,
,,171,2113,35297,Richcraft Recreation Complex - Kanata,4101 Innovation Drive,,,,,,,,,Yes,
,,744,2113,35291,Richcraft Recreation Complex - Kanata,4101 Innovation Drive,,,,,,,,,Yes,
,,745,2113,35293,Richcraft Recreation Complex - Kanata,4101 Innovation Drive,,,,,,,,,Yes,
,,385,338,31422,Westboro Kiwanis Park,411 Dovercourt Avenue, ,,,,, ,,,Yes,
,,564,338,32698,Westboro Kiwanis Park,411 Dovercourt Avenue, ,,,,, ,,,No,
,,1495,338,31421,Westboro Kiwanis Park,411 Dovercourt Avenue, ,,,,, ,,,No,
,,1511,338,32697,Westboro Kiwanis Park,411 Dovercourt Avenue, ,,,,, ,,,No,
,,1694,338,31420,Westboro Kiwanis Park,411 Dovercourt Avenue, ,,,,, ,,,No,
,,1017,201,31247,Whalen Park,4111 Kanata Avenue,Yes,,,,, ,,,No,
,,1602,201,31246,Whalen Park,4111 Kanata Avenue, ,,,,, ,,,No,
,,965,2509,52837,Orchard Park,415 Kilspindie Ridge,Yes,,,,,,,,Yes,
,,1055,2509,52835,Orchard Park,415 Kilspindie Ridge,,,,,,,,,Yes,
,,420,2119,36209,Spratt Park,4191 Spratt Road,,,,,,,,,No,
,,496,2119,36210,Spratt Park,4191 Spratt Road,,,,,,,,,No,
,,1403,2119,36208,Spratt Park,4191 Spratt Road,,,,,,,,,No,
,,1360,2518,49023,Millstone Park,420 de la Famille-Laporte Avenue,,,,,,,,,Yes,
,,1569,2518,49029,Millstone Park,420 de la Famille-Laporte Avenue,Yes,,,,,,,,Yes,
,,1700,2518,49027,Millstone Park,420 de la Famille-Laporte Avenue,,,,,,,,,Yes,
,,317,2126,34630,Water Dragon Park,424 Chapman Mills Drive,,,,,,,,,No,
,,1137,2126,35125,Water Dragon Park,424 Chapman Mills Drive,Yes,,,,,,,,No,
,,1409,2126,34629,Water Dragon Park,424 Chapman Mills Drive,,,,,,,,,No,
,,205,2130,35020,Fosterbrook Park,428 Fosterbrook Way,,,,,,,,,No,
,,206,2130,35021,Fosterbrook Park,428 Fosterbrook Way,,,,,,,,,No,
,,207,2130,35024,Fosterbrook Park,428 Fosterbrook Way,,,,,,,,,Yes,
,,759,2130,35023,Fosterbrook Park,428 Fosterbrook Way,Yes,,,,,,,,No,
,,806,2372,36232,Richmond Oaks Park,43 Rochelle Drive,,,,,,,,,No,
,,1230,2372,36201,Richmond Oaks Park,43 Rochelle Drive,,,,,,,,,No,
,,1073,1032,32153,Optimiste Park,43 Ste. Cécile Street,Yes,,,,, ,,,Yes,
,,1228,1032,32154,Optimiste Park,43 Ste. Cécile Street,Yes,,,,, ,,,Yes,
,,422,1002,32119,Joan O'Malley Park,4310 Shoreline Drive, ,,,,,Yes,,,No,
,,894,1002,32120,Joan O'Malley Park,4310 Shoreline Drive, ,,,,,Yes,,,No,
,,918,2467,35787,Brigatine Park,434 Brigatine Avenue,,,,,,,,,Yes,
,,1121,812,31930,McNabb Park,435 Bronson Avenue,Yes,,,,, ,,,No,
,,1215,812,31927,McNabb Park,435 Bronson Avenue, ,,,,,Yes,,,No,
,,1444,812,35433,McNabb Park,435 Bronson Avenue,,,,,,,,,Yes,
,,1571,812,31928,McNabb Park,435 Bronson Avenue, ,,,,, ,,,No,
,,352,2562,52385,Anishà Park,4355 Kelly Farm Drive,Yes,,,,,,,,Yes,
,,353,2562,52387,Anishà Park,4355 Kelly Farm Drive,,,,,,,,,,
,,354,2562,54159,Anishà Park,4355 Kelly Farm Drive,,,,,,,,,Yes,
,,1030,2562,52389,Anishà Park,4355 Kelly Farm Drive,,,,,,,,,Yes,
,,197,1001,32116,Four Seasons Park,4386 Spratt Road,,,,,, ,,,No,
,,212,1001,32115,Four Seasons Park,4386 Spratt Road,Yes,,,,, ,,,No,
,,1347,1087,32210,Houlahan Park and West Houlahan Park,44 Tartan Drive, ,,,,, ,,,No,
,,1489,1087,32209,Houlahan Park and West Houlahan Park,44 Tartan Drive,Yes,,,,, ,,,No,
,,1501,1087,32211,Houlahan Park and West Houlahan Park,44 Tartan Drive,,,,,, ,,,No,
,,1712,1087,32212,Houlahan Park and West Houlahan Park,44 Tartan Drive,Yes,,,,,,,,No,
,,1048,389,31518,Lytle Park (Nepean),4401 O’Keefe Court, ,,,,, ,,,No,
,,1087,389,58017,Lytle Park (Nepean),4401 O’Keefe Court,,,,,,,,,,
,,1126,389,31519,Lytle Park (Nepean),4401 O’Keefe Court, ,,,,, ,,,No,
,,1425,389,31520,Lytle Park (Nepean),4401 O’Keefe Court,Yes,,,,, ,,,No,
,,54,288,31355,Coronation Park,442 Coronation Avenue, ,,,,, ,,,No,
,,268,288,31352,Coronation Park,442 Coronation Avenue, ,,,,, ,,,No,
,,271,288,32738,Coronation Park,442 Coronation Avenue, ,,,,, ,,,No,
,,1113,288,31353,Coronation Park,442 Coronation Avenue,Yes,,,,, ,,,No,
,,1022,215,31265,Ghosh Park,45 Cellini Court, ,,,,, ,,,No,
,,1646,215,31264,Ghosh Park,45 Cellini Court,,,,,, ,,,No,
,,572,803,31910,Stonegate Park,45 McIntosh Way,Yes,,,,, ,,,No,
,,675,803,31911,Stonegate Park,45 McIntosh Way, ,,,,, ,,,No,
,,1439,803,32630,Stonegate Park,45 McIntosh Way, ,,,,, ,,,No,
,,105,854,32538,Thornecliffe Park,45 Provender Avenue, ,,,,, ,,,No,
,,363,854,31974,Thornecliffe Park,45 Provender Avenue, ,,,,, ,,,No,
,,643,854,35717,Thornecliffe Park,45 Provender Avenue,,,,,,,,,Yes,
,,1075,854,31972,Thornecliffe Park,45 Provender Avenue,Yes,,,,, ,,,No,
,,1592,854,31973,Thornecliffe Park,45 Provender Avenue, ,,,,, ,,,No,
,,42,1679,35122,Aquaview Pond,450 Aquaview Drive,Yes,,,,,,,,No,
,,157,52,35119,Lansdowne Park,450 Queen Elizabeth Driveway,,,,,,,,,Yes,
,,846,2409,35229,Traditions Park,459 West Ridge Drive,,,,,,,,,No,
,,1675,2409,35227,Traditions Park,459 West Ridge Drive,,,,,,,,,No,
,,817,562,31688,Kincardine Park,46 Kincardine Drive, ,,,,, ,,,No,
,,1513,562,31687,Kincardine Park,46 Kincardine Drive,No,,,,, ,,,No,
,,1547,562,31686,Kincardine Park,46 Kincardine Drive,Yes,,,,, ,,,No,
,,1261,335,31417,St. Paul's Park,469 Donald Street, ,,,,, ,,,No,
,,1344,335,31418,St. Paul's Park,469 Donald Street, ,,,,, ,,,No,
,,1681,335,31416,St. Paul's Park,469 Donald Street, ,,,,, ,,,No,
,,1440,902,32612,Rickey Place Park,47 Rickey Place,Yes,,,,, ,,,No,
,,1667,902,32611,Rickey Place Park,47 Rickey Place, ,,,,, ,,,No,
,,805,2367,34635,Millers Point Park,474 Lockmaster Crescent,Yes,,,,,,,,No,
,,1316,2367,34641,Millers Point Park,474 Lockmaster Crescent,,,,,,,,,No,
,,1559,2367,34642,Millers Point Park,474 Lockmaster Crescent,,,,,,,,,No,
,,21,825,31941,Hewitt Park,474 Pickford Drive,,,,,, ,,,No,
,,470,825,31940,Hewitt Park,474 Pickford Drive, ,,,,, ,,,No,
,,717,825,32511,Hewitt Park,474 Pickford Drive, ,,,,, ,,,No,
,,718,825,32512,Hewitt Park,474 Pickford Drive,Yes,,,,, ,,,No,
,,975,739,31980,Nanaimo Park,48 Nanaimo Drive, ,,,,, ,,,No,
,,976,739,31978,Nanaimo Park,48 Nanaimo Drive, ,,,,, ,,,No,
,,1224,739,31979,Nanaimo Park,48 Nanaimo Drive,Yes,,,,, ,,,No,
,,1361,739,31981,Nanaimo Park,48 Nanaimo Drive, ,,,,, ,,,No,
,,1565,364,31466,Ludger Landry Park,4825 Piperville Road, ,,,,, ,,,No,
,,1566,364,31465,Ludger Landry Park,4825 Piperville Road,,,,,, ,,,No,
,,1658,364,31464,Ludger Landry Park,4825 Piperville Road,Yes,,,,, ,,,No,
,,760,2152,34623,Wisteria Park,485 Wisteria Crescent,,,,,,,,,No,
,,761,2152,34624,Wisteria Park,485 Wisteria Crescent,,,,,,,,,No,
,,1520,2597,52707,Lee Boltwood Park,4879 Abbott Street East,Yes,,,,,,,,Yes,
,,1058,590,31720,Wincanton Park,489 Lawler Crescent, ,,,,,Yes,,,No,
,,1421,590,31719,Wincanton Park,489 Lawler Crescent, ,,,,,Yes,,,No,
,,526,34,31046,Fairfield Park,49 Appleford Street,No,,,,, ,,,No,
,,549,34,31047,Fairfield Park,49 Appleford Street,Yes,,,,, ,,,No,
,,550,34,31048,Fairfield Park,49 Appleford Street, ,,,,, ,,,No,
,,1072,1689,32775,Oldfield Park,49 Oldfield Street, ,,,,, ,,,No,
,,1229,1689,32774,Oldfield Park,49 Oldfield Street,Yes,,,,, ,,,No,
,,309,111,31152,Billings Park,495 Billings Avenue, ,,,,, ,,,No,
,,313,111,32736,Billings Park,495 Billings Avenue, ,,,,, ,,,No,
,,1377,111,31151,Billings Park,495 Billings Avenue,Yes,,,,, ,,,No,
,,289,1327,32355,Yves Richer Park,499 des Épinettes Avenue, ,,,,, ,,,No,
,,836,1327,32356,Yves Richer Park,499 des Épinettes Avenue,Yes,,,,, ,,,No,
,,837,1327,32358,Yves Richer Park,499 des Épinettes Avenue, ,,,,,Yes,,,No,
,,1237,1327,32357,Yves Richer Park,499 des Épinettes Avenue, ,,,,,Yes,,,No,
,,461,729,31831,Dog Bone Park,5 Morton Drive, ,,,,, ,,,No,
,,462,729,31830,Dog Bone Park,5 Morton Drive,Yes,,,,, ,,,No,
,,672,796,32680,Ryan Farm Park,5 Parkglen Drive, ,,,,, ,,,No,
,,1527,796,31900,Ryan Farm Park,5 Parkglen Drive, ,,,,, ,,,No,
,,1572,796,31899,Ryan Farm Park,5 Parkglen Drive,Yes,,,,, ,,,No,
,,1650,796,31898,Ryan Farm Park,5 Parkglen Drive, ,,,,, ,,,No,
,,1089,883,31998,Richard Dagg Park,5 Red Maple Crescent Gloucester, ,,,,, ,,,No,
,,232,963,32057,Davidson Park,5 Ryerson Avenue,Yes,,,,, ,,,Yes,
,,236,963,32056,Davidson Park,5 Ryerson Avenue, ,,,,, ,,,Yes,
,,1268,1278,32325,Shirley's Brook Park,5 Shirley's Brook Drive, ,,,,, ,,,No,
,,170,101,53661,Trend-Arlington Park,50 Bellman Drive,,,,,,,,,No,
,,629,101,53659,Trend-Arlington Park,50 Bellman Drive,Yes,,,,,,,,No,
,,651,2628,53759,Dowitcher Park,50 Dowitcher Grove,Yes,,,,,,,,Yes,
,,1275,2628,53815,Dowitcher Park,50 Dowitcher Grove,,,,,,,,,Yes,
,,1277,2628,53817,Dowitcher Park,50 Dowitcher Grove,,,,,,,,,Yes,
,,884,1583,32421,Morgan's Grant Woods Park,50 Flamborough Way, ,,,,, ,,,No,
,,1104,1583,32420,Morgan's Grant Woods Park,50 Flamborough Way,Yes,,,,, ,,,Yes,
,,112,1635,34659,Golflinks Park,50 Golflinks Drive,Yes,,,,, ,,,No,
,,927,1635,32486,Golflinks Park,50 Golflinks Drive, ,,,,,No,,,No,
,,1139,542,31664,Pickford Park,50 Pickford Drive, ,,,,, ,,,No,
,,1459,542,31665,Pickford Park,50 Pickford Drive, ,,,,, ,,,No,
,,504,2498,52509,Creekview Park,505 Creekview Way,Yes,,,,,No,,,Yes,
,,605,2498,52505,Creekview Park,505 Creekview Way,No,,,,,No,,,Yes,
,,937,2498,52507,Creekview Park,505 Creekview Way,No,,,,,No,,,Yes,
,,9,2161,58859,Nimiq Park,5058 North Bluff Drive,,,,,,,,,No,
,,785,2161,58865,Nimiq Park,5058 North Bluff Drive,Yes,,,,,,,,No,
,,1200,2161,58863,Nimiq Park,5058 North Bluff Drive,,,,,,,,,No,
,,1303,76,31101,Laroche Park,51 Stonehurst Avenue, ,,,,, ,,,No,
,,1517,76,31098,Laroche Park,51 Stonehurst Avenue,,,,,, ,,,No,
,,1518,76,31099,Laroche Park,51 Stonehurst Avenue,Yes,,,,, ,,,No,
,,258,312,31373,Quarry Park,51 Twilight Crescent, ,,,,, ,,,No,
,,376,312,31375,Quarry Park,51 Twilight Crescent,Yes,,,,, ,,,No,
,,1209,312,31374,Quarry Park,51 Twilight Crescent, ,,,,, ,,,No,
,,897,1011,56661,Dundonald Park,516 Somerset Street West,Yes,,,,,Yes,,,Yes,
,,898,1011,32135,Dundonald Park,516 Somerset Street West, ,,,,,Yes,,,No,
,,899,1011,32134,Dundonald Park,516 Somerset Street West,Yes,,,,,Yes,,,No,
,,587,1634,32447,W.C. Levesque Fields,52 Riverstone Drive,Yes,,,,,No,,,No,
,,1068,1634,32448,W.C. Levesque Fields,52 Riverstone Drive, ,,,,,No,,,No,
,,1585,2520,35559,Major W. Ross Chamberlain Park,520 Bridgeport Avenue,Yes,,,,,Yes,,,Yes,
,,195,2516,53091,Tulip Tree Park,520 Tulip Tree Way,,,,,,,,,Yes,
,,483,2516,53093,Tulip Tree Park,520 Tulip Tree Way,,,,,,,,,Yes,
,,487,2516,53095,Tulip Tree Park,520 Tulip Tree Way,Yes,,,,,,,,Yes,
,,627,2169,36234,Allegro Park,523 Allegro Way,Yes,,,,,,,,No,
,,1114,291,31359,St-Laurent Complex / Don Gamble Community Centre,525 Côté Street,Yes,,,,, ,,,No,
,,1115,291,32752,St-Laurent Complex / Don Gamble Community Centre,525 Côté Street, ,,,,, ,,,No,
,,1197,291,31356,St-Laurent Complex / Don Gamble Community Centre,525 Côté Street, ,,,,, ,,,No,
,,1271,291,31357,St-Laurent Complex / Don Gamble Community Centre,525 Côté Street, ,,,,, ,,,No,
,,1371,291,32751,St-Laurent Complex / Don Gamble Community Centre,525 Côté Street, ,,,,, ,,,No,
,,1454,291,31358,St-Laurent Complex / Don Gamble Community Centre,525 Côté Street, ,,,,, ,,,No,
,,81,2171,36207,Rosehill Park,528 Rosehill Avenue,,,,,,,,,No,
,,1408,2171,36206,Rosehill Park,528 Rosehill Avenue,,,,,,,,,No,
,,594,49,31072,Grenfell Glen Park,53 Avonlea Road, ,,,,, ,,,No,
,,599,49,31071,Grenfell Glen Park,53 Avonlea Road,Yes,,,,, ,,,No,
,,1001,1672,32542,Brian Parsons Park,53 Black Tern Crescent, ,,,,,No,,,No,
,,873,2434,35333,Ouellette Park,530 Strasbourg Street,,,,,,,,,No,
,,874,2434,35327,Ouellette Park,530 Strasbourg Street,,,,,,,,,No,
,,1157,2434,35321,Ouellette Park,530 Strasbourg Street,,,,,,,,,No,
,,1158,2434,35323,Ouellette Park,530 Strasbourg Street,,,,,,,,,No,
,,1159,2434,35331,Ouellette Park,530 Strasbourg Street,,,,,,,,,No,
,,1320,2434,35325,Ouellette Park,530 Strasbourg Street,,,,,,,,,No,
,,1321,2434,35329,Ouellette Park,530 Strasbourg Street,,,,,,,,,No,
,,930,691,31792,George McLean Park,5348 McLean Crescent,Yes,,,,, ,,,Yes,
,,1258,1163,32271,McKellar Park,539 Wavell Avenue,Yes,,,,, ,,,No,
,,1430,1163,32270,McKellar Park,539 Wavell Avenue, ,,,,, ,,,No,
,,1606,1163,32272,McKellar Park,539 Wavell Avenue, ,,,,, ,,,No,
,,43,2632,53325,August Park,544 Ponthieu Circle,Yes,,,,,,,,Yes,
,,1002,772,31877,White Horse Park,5484 Old Mill Way, ,,,,, ,,,No,
,,1248,772,31876,White Horse Park,5484 Old Mill Way,Yes,,,,, ,,,No,
,,294,1621,32440,Ed Hollyer Park,55 Bellrock Drive,Yes,,,,,No,,,No,
,,93,1659,32785,Gospel Oak Park,55 Gospel Oak Drive, ,,,,,Yes,,,No,
,,160,2559,52903,Patrick Dugas Park,550 Compass Street,,,,,,Yes,,,Yes,
,,484,2559,52907,Patrick Dugas Park,550 Compass Street,Yes,,,,,,,,Yes,
,,983,2559,52905,Patrick Dugas Park,550 Compass Street,,,,,,,,,No,
,,1512,1329,32362,Princess Louise Park,550 Princess Louise Drive, ,,,,, ,,,No,
,,1680,1329,32361,Princess Louise Park,550 Princess Louise Drive,Yes,,,,, ,,,No,
,,47,975,32454,Ivy and Gordon Scharf Park,5535 Pettapiece Crescent, ,,,,,No,,,Yes,
,,849,975,32455,Ivy and Gordon Scharf Park,5535 Pettapiece Crescent,Yes,,,,,No,,,No,
,,687,1126,32640,Chris Bracken Park,5545 South River Drive, ,,,,, ,,,No,
,,1039,1126,32242,Chris Bracken Park,5545 South River Drive,Yes,,,,, ,,,No,
,,1332,1126,32641,Chris Bracken Park,5545 South River Drive, ,,,,, ,,,No,
,,404,533,52233,Joella Park,5565 Joella Crescent,Yes,,,,,,,,Yes,
,,828,2379,34640,Weatherston Street Park,557 Weatherston Street,,,,,,,,,No,
,,1410,2379,36215,Weatherston Street Park,557 Weatherston Street,,,,,,,,,No,
,,1080,330,31412,Centennial Park,5572 Doctor Leach Drive, ,,,,, ,,,No,
,,1223,330,32642,Centennial Park,5572 Doctor Leach Drive, ,,,,, ,,,No,
,,1335,330,31413,Centennial Park,5572 Doctor Leach Drive,Yes,,,,, ,,,No,
,,573,1069,32193,Stonemeadow Park,56 Stonemeadow Drive, ,,,,, ,,,No,
,,1227,1069,32192,Stonemeadow Park,56 Stonemeadow Drive, ,,,,, ,,,No,
,,574,1129,32244,Varley Park,56 Varley Drive, ,,,,, ,,,No,
,,885,1587,32424,Madison Park,56 Whitestone Drive,Yes,,,,, ,,,No,
,,886,1587,32423,Madison Park,56 Whitestone Drive, ,,,,, ,,,No,
,,929,1638,32766,Blair Park,56 Winding Way,Yes,,,,,No,,,No,
,,1599,1638,32768,Blair Park,56 Winding Way, ,,,,,No,,,No,
,,1050,2649,54789,Hunsdeep Rangar Park,560 Décoeur Drive,Yes,,,,,,,,Yes,
,,968,2540,52333,Howard A. Maguire Park,560 Parade Drive,,,,,,,,,Yes,
,,1133,2540,52331,Howard A. Maguire Park,560 Parade Drive,,,,,,,,,Yes,
,,1135,2540,52335,Howard A. Maguire Park,560 Parade Drive,Yes,,,,,,,,Yes,
,,417,2499,35613,Summerhill Park,560 Summerhill Street,Yes,,,,,,,,Yes,
,,938,2499,35609,Summerhill Park,560 Summerhill Street,,,,,,,,,Yes,
,,1663,2499,35611,Summerhill Park,560 Summerhill Street,,,,,,,,,Yes,
,,398,976,32084,Harold Barnhart Park,5650 Scobie Crescent,Yes,,,,,No,,,No,
,,888,653,31766,Osgoode Community Centre,5660 Osgoode Main Street,Yes,,,,, ,,,No,
,,693,823,31935,Osgoode Village Park,5701 Philip Street,Yes,,,,, ,,,No,
,,808,943,32046,Alcide Trudeau Park (Vars),5715 Rockdale Road,Yes,,,,, ,,,No,
,,1553,157,31209,Byron Linear Tramway Park,579 Byron Avenue,Yes,,,,,Yes,,,No,
,,1127,393,31524,Bob Mitchell Park,58 Fieldrow Street,Yes,,,,, ,,,No,
,,457,1323,32338,Longleaf Park,5831 Gladewoods Place, ,,,,, ,,,No,
,,793,1323,32340,Longleaf Park,5831 Gladewoods Place, ,,,,, ,,,No,
,,794,1323,32339,Longleaf Park,5831 Gladewoods Place,Yes,,,,, ,,,No,
,,1563,1323,32341,Longleaf Park,5831 Gladewoods Place,Yes,,,,, ,,,No,
,,524,126,32792,Bluegrass Park,59 Bluegrass Drive, ,,,,, ,,,No,
,,1594,126,32794,Bluegrass Park,59 Bluegrass Drive,Yes,,,,, ,,,No,
,,6,767,31870,Okanagan Park,59 Okanagan Drive,Yes,,,,, ,,,No,
,,485,2633,53007,Rouncey Park,590 Rouncey Road,Yes,,,,,,,,Yes,
,,1218,2633,53003,Rouncey Park,590 Rouncey Road,,,,,,,,,Yes,
,,1219,2633,53005,Rouncey Park,590 Rouncey Road,,,,,,,,,Yes,
,,522,994,31756,David Shentow Park,590 Tillbury Avenue, ,,,,, ,,,No,
,,856,994,32095,David Shentow Park,590 Tillbury Avenue,Yes,,,,, ,,,No,
,,1574,994,32096,David Shentow Park,590 Tillbury Avenue, ,,,,, ,,,No,
,,1710,994,32693,David Shentow Park,590 Tillbury Avenue, ,,,,, ,,,No,
,,1533,1704,32800,Moffatt Farm Veterans Park,591 Kochar Drive,Yes,,,,,Yes,,,No,
,,1706,1704,32799,Moffatt Farm Veterans Park,591 Kochar Drive, ,,,,,Yes,,,Yes,
,,862,618,31747,Lisa Park,6 Lisa Avenue, ,,,,, ,,,No,
,,1141,618,31749,Lisa Park,6 Lisa Avenue,Yes,,,,, ,,,No,
,,749,1187,32304,Winfield Park,6 Winfield Avenue, ,,,,, ,,,No,
,,750,1187,32305,Winfield Park,6 Winfield Avenue, ,,,,, ,,,No,
,,1392,1187,32657,Winfield Park,6 Winfield Avenue, ,,,,, ,,,No,
,,1398,1187,32656,Winfield Park,6 Winfield Avenue,Yes,,,,, ,,,No,
,,1330,569,31696,Manordale Park,60 Knoxdale Road,Yes,,,,, ,,,No,
,,182,32,31043,Apollo Crater Park,600 Apollo Way,Yes,,,,, ,,,No,
,,1614,628,32649,Ken Ross Park,600 Longfields Drive,Yes,,,,, ,,,No,
,,1528,1522,32391,Village Square Park,6000 Abbott ST E, ,,,,, ,,,No,
,,1618,1522,32390,Village Square Park,6000 Abbott ST E, ,,,,, ,,,No,
,,954,1651,32553,Blue Willow Park,6011 Longleaf Drive,Yes,,,,,No,,,No,
,,1600,1651,32554,Blue Willow Park,6011 Longleaf Drive, ,,,,,No,,,No,
,,393,365,31467,Harkness Park,6020 Piperville Road,Yes,,,,, ,,,No,
,,192,406,31535,Forest Glen Park,6091 Forestglen Crescent,Yes,,,,, ,,,No,
,,1166,406,31536,Forest Glen Park,6091 Forestglen Crescent, ,,,,, ,,,No,
,,887,641,31762,Montgomery Memorial Park / Old Town Hall Community Centre,61 Main Street,Yes,,,,,Yes,,,No,
,,517,1004,32126,Silverbirch Park,6105 Silverbirch Street,Yes,,,,, ,,,No,
,,895,1004,32125,Silverbirch Park,6105 Silverbirch Street, ,,,,, ,,,No,
,,866,1509,32580,Ruisseau Park,6116 Creek Crossing Street, ,,,,, ,,,No,
,,1046,1509,32384,Ruisseau Park,6116 Creek Crossing Street, ,,,,, ,,,No,
,,1568,1509,32387,Ruisseau Park,6116 Creek Crossing Street, ,,,,, ,,,No,
,,1587,1509,32385,Ruisseau Park,6116 Creek Crossing Street,Yes,,,,, ,,,No,
,,1601,1509,32386,Ruisseau Park,6116 Creek Crossing Street, ,,,,, ,,,No,
,,799,2651,52439,Albion Falls Park,612 Albion Falls Drive,No,,,,,Yes,,,Yes,
,,1457,1148,32257,Voyageur Park,6137 / 6138 Voyageur Drive, ,,,,, ,,,No,
,,1707,1148,32256,Voyageur Park,6137 / 6138 Voyageur Drive,Yes,,,,, ,,,No,
,,698,1725,34996,Pine Vista Park,616 Pine Vista Drive,Yes,,,,,,,,No,
,,699,1725,34995,Pine Vista Park,616 Pine Vista Drive,,,,,,,,,No,
,,1447,1725,34997,Pine Vista Park,616 Pine Vista Drive,,,,,,,,,No,
,,1301,498,31629,Lakeview Park,62 A Horner Drive,Yes,,,,, ,,,Yes,
,,198,1568,32415,Forestglade Park,62 Forestglade Crescent,Yes,,,,, ,,,No,
,,881,1568,32416,Forestglade Park,62 Forestglade Crescent, ,,,,, ,,,No,
,,907,688,31789,McGibbon Park,62 McGibbon Drive, ,,,,, ,,,No,
,,947,701,31815,Roy Park,6210 Meadowglen Drive,Yes,,,,, ,,,No,
,,948,701,34643,Roy Park,6210 Meadowglen Drive, ,,,,, ,,,No,
,,949,701,31816,Roy Park,6210 Meadowglen Drive, ,,,,, ,,,No,
,,1051,701,32579,Roy Park,6210 Meadowglen Drive, ,,,,, ,,,No,
,,22,779,31885,Hiawatha Park,6218 Voyageur Drive,Yes,,,,, ,,,No,
,,842,587,31718,La Verendrye Park,625 La Verendrye Drive, ,,,,, ,,,No,
,,843,587,31715,La Verendrye Park,625 La Verendrye Drive, ,,,,, ,,,No,
,,1117,587,31714,La Verendrye Park,625 La Verendrye Drive, ,,,,, ,,,No,
,,1119,587,31716,La Verendrye Park,625 La Verendrye Drive,Yes,,,,, ,,,No,
,,1562,501,31632,Louis Perrault Park,6250 Beauséjour Drive,Yes,,,,, ,,,Yes,
,,764,903,32012,March Central Community Centre and Park,630 Cameron Harvey Drive, ,,,,,Yes,,,No,
,,1428,903,32013,March Central Community Centre and Park,630 Cameron Harvey Drive, ,,,,,Yes,,,No,
,,173,2640,53221,Putney Woodland Park,631 Putney Crescent,,,,,,,,,Yes,
,,293,2640,53223,Putney Woodland Park,631 Putney Crescent,,,,,,,,,Yes,
,,129,1147,32255,Cathedral Park,6347 Viseneau Drive, ,,,,, ,,,No,
,,413,2503,52567,Havencrest Woods Park,636 Barry Helman Crescent,No,,,,,No,,,Yes,
,,963,2503,52565,Havencrest Woods Park,636 Barry Helman Crescent,No,,,,,No,,,Yes,
,,221,216,31266,Joshua Bradley Park,64 Centrepark Drive, ,,,,, ,,,No,
,,226,216,31267,Joshua Bradley Park,64 Centrepark Drive,Yes,,,,, ,,,No,
,,508,216,31268,Joshua Bradley Park,64 Centrepark Drive,Yes,,,,, ,,,No,
,,1041,51,31073,Sylvia Holden Park,641 O'Connor Street,Yes,,,,, ,,,No,
,,1203,51,31074,Sylvia Holden Park,641 O'Connor Street, ,,,,, ,,,No,
,,391,798,31904,Hampton Park,645 Parkview Road, ,,,,, ,,,No,
,,674,798,31906,Hampton Park,645 Parkview Road,Yes,,,,, ,,,No,
,,792,2365,35397,Fern Park,6462 Deer Valley Crescent,Yes,,,,,,,,,
,,329,329,56743,Edward Craig Park,6480 Doctor Blair Crescent,,,,,,,,,,
,,1300,329,31411,Edward Craig Park,6480 Doctor Blair Crescent,Yes,,,,, ,,,No,
,,433,1331,56779,Greely West Park,6485 Greely West Drive,,,,,,,,,,
,,435,1331,32367,Greely West Park,6485 Greely West Drive, ,,,,, ,,,Yes,
,,567,1331,32635,Greely West Park,6485 Greely West Drive,No,,,,, ,,,No,
,,595,1331,32368,Greely West Park,6485 Greely West Drive,Yes,,,,, ,,,No,
,,597,1331,56781,Greely West Park,6485 Greely West Drive,,,,,,,,,Yes,
,,512,853,31971,Josie Anselmo Memorial Park,6499 Princiotta Street,,,,,, ,,,No,
,,513,853,31970,Josie Anselmo Memorial Park,6499 Princiotta Street,Yes,,,,, ,,,No,
,,724,853,31969,Josie Anselmo Memorial Park,6499 Princiotta Street, ,,,,, ,,,Yes,
,,926,1629,32520,Ladybirds Park,65 Sirocco Crescent, ,,,,,No,,,No,
,,1082,1629,32522,Ladybirds Park,65 Sirocco Crescent, ,,,,, ,,,No,
,,617,137,31192,Deevy Pines Park,65 Stonehaven Drive, ,,,,, ,,,No,
,,1416,137,31190,Deevy Pines Park,65 Stonehaven Drive,Yes,,,,, ,,,No,
,,1035,2612,53381,Don Boudria Park,655 Décoeur Drive,Yes,,,,,,,,Yes,
,,505,321,31390,Delorme Park,6591 Delorme Avenue, ,,,,, ,,,No,
,,1297,321,31392,Delorme Park,6591 Delorme Avenue,Yes,,,,, ,,,No,
,,1298,321,31393,Delorme Park,6591 Delorme Avenue, ,,,,, ,,,No,
,,101,1669,36249,Echowoods Park,66 Lloydalex Crescent,,,,,,,,,No,
,,127,2493,49007,Boothfield Park,660 Boothfield Street,Yes,,,,,,,,Yes,
,,1282,925,32029,Claudette Cain Park,660 River Road,Yes,,,,, ,,,No,
,,1417,925,55943,Claudette Cain Park,660 River Road,,,,,,,,,No,
,,1525,925,32032,Claudette Cain Park,660 River Road,Yes,,,,, ,,,No,
,,311,107,31144,Bilberry Park,6600 Bilberry Drive,Yes,,,,, ,,,No,
,,1376,107,31145,Bilberry Park,6600 Bilberry Drive, ,,,,, ,,,No,
,,1128,195,31243,Laurier Carrière Park,6601 Carrière Street, ,,,,, ,,,No,
,,1630,195,31241,Laurier Carrière Park,6601 Carrière Street,,,,,, ,,,Yes,
,,1317,1294,32327,Whittle-Winter Park,6621 Dorack Drive, ,,,,, ,,,No,
,,1498,1294,32326,Whittle-Winter Park,6621 Dorack Drive, ,,,,, ,,,No,
,,1624,2471,35789,Calwood Park,6641 Calwood Avenue,Yes,,,,,,,,Yes,
,,1661,2471,35793,Calwood Park,6641 Calwood Avenue,,,,,,,,,Yes,
,,1449,2255,36225,Kilbirnie Park,665 Kilbirnie Drive,,,,,,,,,No,
,,196,807,31920,Forbes Park,669 Paul Avenue, ,,,,, ,,,No,
,,199,807,31922,Forbes Park,669 Paul Avenue,Yes,,,,, ,,,No,
,,203,807,31921,Forbes Park,669 Paul Avenue, ,,,,, ,,,No,
,,98,152,31205,Echo Park,6698 Marina Drive, ,,,,, ,,,No,
,,100,152,31204,Echo Park,6698 Marina Drive,Yes,,,,, ,,,No,
,,711,439,32540,Insmill Park,67 Insmill Crescent,Yes,,,,,No,,,No,
,,712,439,32539,Insmill Park,67 Insmill Crescent, ,,,,,No,,,No,
,,1267,439,31569,Insmill Park,67 Insmill Crescent, ,,,,, ,,,No,
,,544,1678,32842,Portobello Park,670 Aquaview Drive,Yes,,,,, ,,,No,
,,640,1678,35545,Portobello Park,670 Aquaview Drive,,,,,,,,,Yes,
,,1387,1678,32841,Portobello Park,670 Aquaview Drive, ,,,,, ,,,No,
,,1008,2614,53279,Georges Dassylva Park,670 Monardia Way,Yes,,,,,,,,Yes,
,,159,2596,52473,Black Raven Community Park,675 Dundonald Drive,No,,,,,No,,,Yes,
,,663,2596,52477,Black Raven Community Park,675 Dundonald Drive,Yes,,,,,No,,,Yes,
,,65,2378,35779,South Village Park,6799 South Village Drive,,,,,,,,,No,
,,66,2378,35781,South Village Park,6799 South Village Drive,,,,,,,,,No,
,,67,2378,35783,South Village Park,6799 South Village Drive,,,,,,,,,No,
,,1037,375,35387,Chaudière Park,68 Elm Street,,,,,,,,,No,
,,1697,375,31481,Chaudière Park,68 Elm Street, ,,,,, ,,,Yes,
,,2,386,31516,Fallingbrook Park,681 Deancourt Crescent,Yes,,,,, ,,,No,
,,516,386,31513,Fallingbrook Park,681 Deancourt Crescent, ,,,,, ,,,No,
,,551,386,31514,Fallingbrook Park,681 Deancourt Crescent, ,,,,, ,,,No,
,,1125,386,31517,Fallingbrook Park,681 Deancourt Crescent, ,,,,, ,,,No,
,,1234,386,31515,Fallingbrook Park,681 Deancourt Crescent, ,,,,, ,,,No,
,,58,988,32088,Westcliffe Park,681 Seyton Drive, ,,,,, ,,,No,
,,80,988,32089,Westcliffe Park,681 Seyton Drive,Yes,,,,, ,,,No,
,,1399,988,32663,Westcliffe Park,681 Seyton Drive, ,,,,, ,,,No,
,,1633,988,32664,Westcliffe Park,681 Seyton Drive, ,,,,, ,,,No,
,,636,2470,35443,Pebble Trail Park,6860 Pebble Trail Way,Yes,,,,,,,,Yes,
,,1249,2470,35767,Pebble Trail Park,6860 Pebble Trail Way,,,,,,,,,Yes,
,,1250,2470,35445,Pebble Trail Park,6860 Pebble Trail Way,,,,,,,,,Yes,
,,1374,41,31061,Armstrong Park (Old Ottawa),69 Armstrong Street, ,,,,,Yes,,,No,
,,367,638,31760,Glebe Community Centre and St James Tennis Courts,690 Lyon Street South, ,,,,,Yes,,,No,
,,441,468,31600,Arnott Park,691 Hartman Crescent, ,,,,, ,,,No,
,,442,468,31598,Arnott Park,691 Hartman Crescent, ,,,,, ,,,No,
,,443,468,35359,Arnott Park,691 Hartman Crescent,,,,,,,,,No,
,,445,468,31599,Arnott Park,691 Hartman Crescent,Yes,,,,, ,,,No,
,,448,468,31601,Arnott Park,691 Hartman Crescent,,,,,, ,,,No,
,,752,468,35357,Arnott Park,691 Hartman Crescent,,,,,,,,,No,
,,51,108,31147,Joe Jamieson Park,6940 Bilberry Drive, ,,,,, ,,,No,
,,361,108,31149,Joe Jamieson Park,6940 Bilberry Drive,Yes,,,,, ,,,No,
,,1590,108,31148,Joe Jamieson Park,6940 Bilberry Drive,Yes,,,,, ,,,No,
,,117,19,31022,Allenby Park,7 Allenby Road,Yes,,,,, ,,,No,
,,630,19,32603,Allenby Park,7 Allenby Road, ,,,,,No,,,No,
,,1177,168,32681,City View Park,7 Canter Boulevard,Yes,,,,, ,,,No,
,,27,1657,32488,Finchley Park,7 Finchley Drive,,,,,,No,,,No,
,,28,1657,32490,Finchley Park,7 Finchley Drive,Yes,,,,,No,,,No,
,,29,1657,32489,Finchley Park,7 Finchley Drive,,,,,,No,,,No,
,,89,1657,32487,Finchley Park,7 Finchley Drive, ,,,,,No,,,No,
,,110,88,31112,Gowrie Park,7 Gowrie Drive,Yes,,,,, ,,,No,
,,255,790,31887,Palsen Park,7 Palsen Street, ,,,,, ,,,No,
,,1067,1080,32204,Lynwood Park,7 Sycamore Drive,Yes,,,,, ,,,No,
,,925,1628,32515,Banyon Park,70 Abaca Way, ,,,,,No,,,No,
,,992,776,31878,Beaton Park,70 Castlefrank Road, ,,,,, ,,,No,
,,1198,496,31623,Neill Nesbitt Park,70 Foxfield Drive,Yes,,,,, ,,,No,
,,950,731,31834,Mulligan Park,70 Mountshannon Drive,Yes,,,,, ,,,No,
,,1061,731,31832,Mulligan Park,70 Mountshannon Drive,Yes,,,,, ,,,Yes,
,,17,2490,34980,Doug Rivington Park,701 Meadowridge Circle,Yes,,,,,,,,Yes,
,,18,2490,34978,Doug Rivington Park,701 Meadowridge Circle,,,,,,,,,Yes,
,,614,2490,34979,Doug Rivington Park,701 Meadowridge Circle,,,,,,,,,Yes,
,,455,289,34650,Herb Johnston Park,7035 Cosgrove Avenue, ,,,,, ,,,No,
,,456,289,32636,Herb Johnston Park,7035 Cosgrove Avenue,Yes,,,,, ,,,No,
,,973,1664,32497,Shadow Ridge Park,7064 Donwel Drive,Yes,,,,,No,,,No,
,,995,1664,32499,Shadow Ridge Park,7064 Donwel Drive, ,,,,,No,,,No,
,,996,1664,32500,Shadow Ridge Park,7064 Donwel Drive, ,,,,,No,,,No,
,,1397,1664,32498,Shadow Ridge Park,7064 Donwel Drive, ,,,,,No,,,No,
,,1573,1664,32496,Shadow Ridge Park,7064 Donwel Drive, ,,,,,No,,,No,
,,648,2599,49239,Eugène Martineau Park ,710 Mikinak Road,,,,,,,,,Yes,
,,1032,2599,49235,Eugène Martineau Park ,710 Mikinak Road,,,,,,,,,Yes,
,,1033,2599,49237,Eugène Martineau Park ,710 Mikinak Road,,,,,,,,,Yes,
,,118,1666,32812,Butterfly Park,711 Long Point Circle, ,,,,, ,,,Yes,
,,332,1666,32813,Butterfly Park,711 Long Point Circle, ,,,,, ,,,Yes,
,,333,1666,32810,Butterfly Park,711 Long Point Circle,Yes,,,,, ,,,Yes,
,,16,337,56501,Dossetter Park,72 Dossetter Way,Yes,,,,,,,,No,
,,20,337,31419,Dossetter Park,72 Dossetter Way, ,,,,, ,,,Yes,
,,1160,1191,32310,Medhurst Park,72 Medhurst Drive / 403 Woodfield Drive, ,,,,, ,,,No,
,,787,2278,35263,Vista Park,720 Vistapark Drive,,,,,,,,,No,
,,788,2278,35257,Vista Park,720 Vistapark Drive,,,,,,,,,No,
,,1095,2278,35261,Vista Park,720 Vistapark Drive,,,,,,,,,No,
,,1153,2278,35265,Vista Park,720 Vistapark Drive,,,,,,,,,No,
,,1195,2278,35259,Vista Park,720 Vistapark Drive,,,,,,,,,No,
,,872,2428,34620,Turtle Park,720 White Alder Avenue,,,,,,,,,No,
,,1405,2428,34619,Turtle Park,720 White Alder Avenue,,,,,,,,,No,
,,479,73,54473,Bathgate Park,724 Bathgate Drive,,,,,,,,,,
,,72,1607,32436,Petrie Island Park,727 Tweddle Road, ,,,,,No,,,No,
,,582,2488,35831,Greely Village Park,7292 Parkway Road,,,,,,,,,Yes,
,,589,2488,35835,Greely Village Park,7292 Parkway Road,,,,,,,,,Yes,
,,923,2488,35827,Greely Village Park,7292 Parkway Road,,,,,,,,,Yes,
,,64,1172,32279,Weslock Park,73 Weslock Way, ,,,,, ,,,No,
,,1575,1172,32280,Weslock Park,73 Weslock Way, ,,,,, ,,,No,
,,610,2554,35721,Albert Argue Black Park,735 Rosehill Avenue,Yes,,,,,,,,Yes,
,,814,546,31675,Watt's Creek Park,74 Katimavik Road, ,,,,, ,,,No,
,,1656,357,31460,Eastvale Park,740 Eastvale Drive, ,,,,, ,,,No,
,,1657,357,31459,Eastvale Park,740 Eastvale Drive, ,,,,, ,,,No,
,,1676,357,31456,Eastvale Park,740 Eastvale Drive,Yes,,,,, ,,,No,
,,45,1524,32394,J.J. Clarke Park,75 Bridlewood Drive, ,,,,, ,,,No,
,,425,1524,32392,J.J. Clarke Park,75 Bridlewood Drive,Yes,,,,, ,,,No,
,,135,397,31529,Weybridge Park,75 Flanders Street, ,,,,, ,,,Yes,
,,136,397,31532,Weybridge Park,75 Flanders Street, ,,,,, ,,,No,
,,139,397,31528,Weybridge Park,75 Flanders Street, ,,,,, ,,,Yes,
,,141,397,31530,Weybridge Park,75 Flanders Street,Yes,,,,, ,,,Yes,
,,429,397,31531,Weybridge Park,75 Flanders Street, ,,,,, ,,,No,
,,253,432,31556,Glebe Memorial Park,75 Glendale Avenue, ,,,,, ,,,No,
,,257,432,31559,Glebe Memorial Park,75 Glendale Avenue, ,,,,, ,,,No,
,,368,432,31558,Glebe Memorial Park,75 Glendale Avenue,Yes,,,,, ,,,No,
,,709,432,31557,Glebe Memorial Park,75 Glendale Avenue, ,,,,, ,,,No,
,,706,2630,52543,Harold Brown Park,750 Kirkham Crescent,Yes,,,,,No,,,Yes,
,,1155,2283,35285,Recreational Trail,751 West Hunt Club Road,,,,,,,,,No,
,,1156,2283,35287,Recreational Trail,751 West Hunt Club Road,,,,,,,,,No,
,,557,518,31642,Inverness Park,76 Inverness Avenue, ,,,,, ,,,No,
,,1239,518,31643,Inverness Park,76 Inverness Avenue,Yes,,,,, ,,,No,
,,821,582,57745,Larkin Park,76 Larkin Drive,Yes,,,,,,,,No,
,,1091,582,31705,Larkin Park,76 Larkin Drive, ,,,,, ,,,No,
,,1132,582,31706,Larkin Park,76 Larkin Drive,Yes,,,,, ,,,No,
,,789,2286,36221,Parkland (760 Lakeridge Drive),760 Lakeridge Drive,,,,,,,,,No,
,,1395,2286,34643,Parkland (760 Lakeridge Drive),760 Lakeridge Drive,,,,,,,,,No,
,,256,1322,32337,Robert Park,760 Vinette Crescent, ,,,,,Yes,,,No,
,,781,1322,32336,Robert Park,760 Vinette Crescent, ,,,,, ,,,No,
,,1686,1322,32335,Robert Park,760 Vinette Crescent, ,,,,, ,,,No,
,,850,985,35461,Rideau Country Estates South Park,7630 Settler's Way,,,,,,,,,Yes,
,,851,985,35463,Rideau Country Estates South Park,7630 Settler's Way,,,,,,,,,Yes,
,,559,1314,32332,Reeve Craig Park,7747 Greenline Road,Yes,,,,, ,,,No,
,,779,1314,32331,Reeve Craig Park,7747 Greenline Road, ,,,,, ,,,No,
,,96,914,32740,Vernon Park,7814 Lawrence Street, ,,,,, ,,,No,
,,765,914,32015,Vernon Park,7814 Lawrence Street,,,,,, ,,,No,
,,1005,914,32742,Vernon Park,7814 Lawrence Street, ,,,,,No,,,No,
,,1349,914,32741,Vernon Park,7814 Lawrence Street,Yes,,,,, ,,,No,
,,1595,914,32014,Vernon Park,7814 Lawrence Street, ,,,,,Yes,,,No,
,,1537,317,31382,Décarie Park,7883 Décarie Drive,Yes,,,,, ,,,No,
,,906,686,31787,Hayward Park,79 McCurdy Drive, ,,,,, ,,,No,
,,275,318,31384,Troyes Park,7946 Décarie Drive, ,,,,, ,,,No,
,,603,318,31385,Troyes Park,7946 Décarie Drive,Yes,,,,, ,,,No,
,,1589,318,31383,Troyes Park,7946 Décarie Drive, ,,,,, ,,,No,
,,106,1676,32606,Scala Park,797 Scala Avenue,Yes,,,,, ,,,No,
,,604,1676,32604,Scala Park,797 Scala Avenue, ,,,,, ,,,No,
,,668,1676,32601,Scala Park,797 Scala Avenue, ,,,,, ,,,No,
,,1003,1676,35543,Scala Park,797 Scala Avenue,,,,,,,,,Yes,
,,1006,1676,32605,Scala Park,797 Scala Avenue, ,,,,, ,,,No,
,,283,2397,54369,Barcham Park,80 Bren-Maur Road,,,,,,,,,No,
,,296,2397,54371,Barcham Park,80 Bren-Maur Road,,,,,,,,,No,
,,299,2397,54373,Barcham Park,80 Bren-Maur Road,Yes,,,,,,,,No,
,,1016,672,31773,Martin Street Park,80 Martin Street, ,,,,,Yes,,,No,
,,259,751,31852,McCann Park,80 Norman Street, ,,,,, ,,,No,
,,102,870,32652,Stinson Park,80 Queensbury Drive, ,,,,, ,,,No,
,,436,870,31975,Stinson Park,80 Queensbury Drive,Yes,,,,, ,,,No,
,,530,870,31976,Stinson Park,80 Queensbury Drive, ,,,,, ,,,No,
,,1510,870,31977,Stinson Park,80 Queensbury Drive,Yes,,,,, ,,,No,
,,569,1633,32621,Sawyer's Meadow Park,80 Sawyer Way, ,,,,, ,,,No,
,,1262,1633,32620,Sawyer's Meadow Park,80 Sawyer Way, ,,,,, ,,,No,
,,1711,1633,32619,Sawyer's Meadow Park,80 Sawyer Way,Yes,,,,, ,,,No,
,,1028,2429,36243,Campobello Park,800 Campobello Drive,,,,,,,,,Yes,
,,70,1029,32148,Paget Park,801 Springland Drive, ,,,,, ,,,No,
,,162,1029,35437,Paget Park,801 Springland Drive,,,,,,,,,Yes,
,,583,1029,32146,Paget Park,801 Springland Drive, ,,,,, ,,,No,
